name;categories;lat;lng
REWE;Supermarket;51.01131215126019;6.907154690358084
Rossmann;Drugstore;51.0116046557601;6.90624476880534
Haselnuﬂhof;Shopping Mall;51.011250093169096;6.906197560578902
Haus Thomas;Restaurant;51.010962939728635;6.896064655526409
U Heimersdorf;Metro Station;51.011638;6.907164
