name;categories;lat;lng
Hansebäcker Junge;Bakery;53.57605863260796;9.82376767159054
Lidl;Supermarket;53.5757145;9.8244714
Fressnapf Hamburg-Osdorf;Pet Store;53.5755644;9.8257695
Hamburger Sparkasse;Bank;53.57620003591595;9.822700023651123
Hotel Blankenese;Hotel;53.57471038344093;9.82399809445266
