name;categories;lat;lng
BICHOU;Bistro;52.482467242880354;13.436506649594563
SchwuZ;Nightclub;52.47944881;13.43312668
Babbo Bar;Italian Restaurant;52.481695588044566;13.436558246612549
Twinpigs;Cocktail Bar;52.4805332030826;13.43186175232404
Klunkerkranich;Beer Garden;52.48209623936856;13.431419613103948
La Bolognina;Italian Restaurant;52.48241216588175;13.435651487321257
