name;categories;lat;lng
Tropical;Ice Cream Shop;50.199284;8.670852
U Nieder-Eschbach;Metro Station;50.19905833058696;8.670555142654711
Wiener Feinbäckerei Heberer;Bakery;50.19891495457278;8.670309152191413
Restaurant Darmstädter Hof;German Restaurant;50.199373697932586;8.672203627295408
Darmstaedter Hof Hotel Frankfurt am Main;Hotel;50.1993909221649;8.672432137497625
