name;categories;lat;lng
Ristorante Il Doge;Italian Restaurant;50.1292585658914;8.731513798013568
U Sch‰fflestraﬂe;Metro Station;50.13124975643393;8.734323978424072
Pizzeria da Stefano;Italian Restaurant;50.13051041756448;8.737488985061646
Netto Marken-Discount;Supermarket;50.12566503;8.73773123
Trinkhalle;Convenience Store;50.12770128504542;8.726538107937287
