name;categories;lat;lng
Parkside Hotel;Hotel;50.107449049574456;8.536176220234754
EDEKA City-Supermarkt Lich;Supermarket;50.10956873;8.5364394
Unterliederbach Bf;Platform;50.107682149555686;8.528237103646712
Asiatischer Imbiss;Asian Restaurant;50.110793;8.538207
Intersport Voswinkel;Sporting Goods Shop;50.110310906210714;8.525815105104492
