name;categories;lat;lng
Schrebers;German Restaurant;51.33929724644586;12.357093674345544
Johannapark;Park;51.334915179965385;12.363202571868896
Tamers;Doner Restaurant;51.341943;12.359098
Konsum;Supermarket;51.33575907304344;12.35918291241408
SUBWAY;Sandwich Place;51.341812;12.358756
