name;categories;lat;lng;subcity;Unnamed: 0;City
EDEKA Lemberg;Supermarket;51.41864505;7.08046577;Überruhr-Holthausen, Essen;;Essen
Lidl;Supermarket;51.4226999;7.073792200000001;Überruhr-Holthausen, Essen;;Essen
Pepe Foto Video Studio;Photography Studio;51.4192293;7.0743488000000525;Überruhr-Holthausen, Essen;;Essen
H. Schäfer Heizung - Sanitär GmbH;Construction & Landscaping;51.416924;7.0754399999999995;Überruhr-Holthausen, Essen;;Essen
Sattmachergrill;Greek Restaurant;51.428434033777606;7.0769548416137695;Überruhr-Hinsel, Essen;;Essen
Förster;Bakery;51.429665;7.076525;Überruhr-Hinsel, Essen;;Essen
Deutsche Bank SB-Stelle;ATM;51.42967155421821;7.075686242310552;Überruhr-Hinsel, Essen;;Essen
Sattmacher Grill;BBQ Joint;51.428345040958604;7.076836521910258;Überruhr-Hinsel, Essen;;Essen
Kaltschmidt GmbH Sanitärtechnik;Construction & Landscaping;51.426296;7.0817;Überruhr-Hinsel, Essen;;Essen
Landhaus Zündorf;Food;50.869607269534036;7.043106731107226;Zündorf, Köln;;Köln
EDEKA Hein;Supermarket;50.86656075;7.04252539;Zündorf, Köln;;Köln
Groov Terrasse;German Restaurant;50.86986503608848;7.043399421581851;Zündorf, Köln;;Köln
REWE;Supermarket;50.8679631820348;7.04482558475604;Zündorf, Köln;;Köln
H Zündorf Kirche;Bus Stop;50.866313;7.041727000000001;Zündorf, Köln;;Köln
Minigolfanlage Porz-Zündorf;Mini Golf;50.869105655825386;7.041835642794063;Zündorf, Köln;;Köln
Geli's Eiscafe;Ice Cream Shop;50.86924512141146;7.0425576254110265;Zündorf, Köln;;Köln
Kombibad Zündorf;Pool;50.865428044539634;7.037478454836345;Zündorf, Köln;;Köln
Pastis Bacchus;French Restaurant;50.869426000000004;7.042578;Zündorf, Köln;;Köln
H Zündorf;Tram Station;50.8661156918789;7.048995442338519;Zündorf, Köln;;Köln
Zum St.Martin;Greek Restaurant;50.86340186709672;7.03721878389396;Zündorf, Köln;;Köln
RISTORANTE MANGIA!;Gastropub;48.83226949048722;9.167467768148107;Zuffenhausen, Stuttgart;;Stuttgart
dm-drogerie markt;Drugstore;48.832476888860796;9.168281469896556;Zuffenhausen, Stuttgart;;Stuttgart
Asia-Imbiss VAN;Chinese Restaurant;48.832077000000005;9.172754;Zuffenhausen, Stuttgart;;Stuttgart
Climbmax;Climbing Gym;48.834532665605096;9.163544674417864;Zuffenhausen, Stuttgart;;Stuttgart
La Mekan Zuffenhausen - Shisha Lounge;Hookah Bar;48.83111919745637;9.160691638209158;Zuffenhausen, Stuttgart;;Stuttgart
Bäckerei Konditorei Siegel;Bakery;48.832077364374705;9.171924614578574;Zuffenhausen, Stuttgart;;Stuttgart
Burger.Place;Burger Joint;48.829101;9.164964999999999;Zuffenhausen, Stuttgart;;Stuttgart
Kirchtal;Restaurant;48.833580017089844;9.170272827148438;Zuffenhausen, Stuttgart;;Stuttgart
Eis Olivier;Ice Cream Shop;48.83162336196646;9.174003216010453;Zuffenhausen, Stuttgart;;Stuttgart
Rossmann;Drugstore;48.83273030503927;9.173787526011317;Zuffenhausen, Stuttgart;;Stuttgart
Aslan Kebab Haus;Kebab Restaurant;48.83004332360054;9.168044733657165;Zuffenhausen, Stuttgart;;Stuttgart
REWE;Supermarket;48.830542;9.168066699999999;Zuffenhausen, Stuttgart;;Stuttgart
Busbahnhof Zuffenhausen;Bus Station;48.82961272599756;9.168380496551617;Zuffenhausen, Stuttgart;;Stuttgart
U Kirchtalstraße (Volksbank Zuffenhausen);Metro Station;48.83229462454661;9.169957637786863;Zuffenhausen, Stuttgart;;Stuttgart
Pho à la mama;Vietnamese Restaurant;48.828262;9.166749000000001;Zuffenhausen, Stuttgart;;Stuttgart
Yazgülü;Grocery Store;48.830798;9.161022;Zuffenhausen, Stuttgart;;Stuttgart
Höninger;Restaurant;50.91303844585693;6.94080690118825;Zollstock, Köln;;Köln
Star Grill;Eastern European Restaurant;50.911300013028345;6.941382146671603;Zollstock, Köln;;Köln
Refugium;Pub;50.9126169378101;6.94579703202672;Zollstock, Köln;;Köln
Zollhof;Modern European Restaurant;50.91305047305281;6.941514015197754;Zollstock, Köln;;Köln
dm-drogerie markt;Drugstore;50.91222523938443;6.940628574170432;Zollstock, Köln;;Köln
Yummy Town;Chinese Restaurant;50.908752337636614;6.9412822261889495;Zollstock, Köln;;Köln
Pizza Corleone;Pizza Place;50.90792434026269;6.945313083385852;Zollstock, Köln;;Köln
Deutsche Bank;ATM;50.9120394342974;6.941177422701799;Zollstock, Köln;;Köln
Rossmann;Drugstore;50.913211;6.946173;Zollstock, Köln;;Köln
China Imbiss Wei Wei;Chinese Restaurant;50.91098262044146;6.940936881938255;Zollstock, Köln;;Köln
Lidl;Supermarket;50.91402878157792;6.941519379615784;Zollstock, Köln;;Köln
Eiscafé Orchidea;Ice Cream Shop;50.909652868519494;6.9415515661239615;Zollstock, Köln;;Köln
H Gottesweg;Tram Station;50.9099685029628;6.941439894713037;Zollstock, Köln;;Köln
Bäckerei Heinemann;Bakery;50.91124047353491;6.9413960535377495;Zollstock, Köln;;Köln
DEE NA Thai Massage & Wellness;Spa;50.91071834611135;6.941986083984375;Zollstock, Köln;;Köln
Bäckerei Middelberg;Bakery;50.91325209788269;6.9419945126994405;Zollstock, Köln;;Köln
Mrs. Sporty;Gym / Fitness Center;50.91306913215986;6.944503819096725;Zollstock, Köln;;Köln
ALDI SÜD;Supermarket;50.913066828405775;6.945180775729308;Zollstock, Köln;;Köln
H Bernkasteler Straße;Bus Stop;50.90668631512553;6.937394142150879;Zollstock, Köln;;Köln
H Zollstockgürtel;Tram Station;50.905467745650256;6.942052875823612;Zollstock, Köln;;Köln
SweatnDance;Athletics & Sports;50.91317373095231;6.937024656504022;Zollstock, Köln;;Köln
Anwar Grillhähnchen;Food Truck;50.90623649971159;6.937541660171847;Zollstock, Köln;;Köln
Schrebers;German Restaurant;51.33929724644586;12.357093674345546;Zentrum-West, Leipzig;;Leipzig
Johannapark;Park;51.33491517996538;12.363202571868895;Zentrum-West, Leipzig;;Leipzig
Tamers;Doner Restaurant;51.341943;12.359098;Zentrum-West, Leipzig;;Leipzig
Konsum;Supermarket;51.33575907304344;12.35918291241408;Zentrum-West, Leipzig;;Leipzig
SUBWAY;Sandwich Place;51.341812;12.358756;Zentrum-West, Leipzig;;Leipzig
Friedenspark;Park;51.32765;12.394825;Zentrum-Südost, Leipzig;;Leipzig
REWE;Supermarket;51.325639763179986;12.387133875170887;Zentrum-Südost, Leipzig;;Leipzig
Botanischer Garten der Universität Leipzig;Botanical Garden;51.32898143232605;12.391273508511569;Zentrum-Südost, Leipzig;;Leipzig
H Johannisallee;Tram Station;51.327344127775575;12.388853262671773;Zentrum-Südost, Leipzig;;Leipzig
MIO Restaurant;Italian Restaurant;51.33192148772387;12.366488986582933;Zentrum-Süd, Leipzig;;Leipzig
Viet Village;Vietnamese Restaurant;51.33182;12.367239999999999;Zentrum-Süd, Leipzig;;Leipzig
Renkli - Wein und Angst;Wine Bar;51.331595;12.373756;Zentrum-Süd, Leipzig;;Leipzig
myhotelshop;Tech Startup;51.33025;12.372399;Zentrum-Süd, Leipzig;;Leipzig
Galerie für zeitgenössische Kunst;Art Gallery;51.33415284216147;12.365387318173438;Zentrum-Süd, Leipzig;;Leipzig
Parkbühne;Music Venue;51.32920325494307;12.36105020955498;Zentrum-Süd, Leipzig;;Leipzig
Café bau bau;Café;51.33422;12.365909;Zentrum-Süd, Leipzig;;Leipzig
Uptown Coffee Bar;Café;51.33113370009454;12.374037498052553;Zentrum-Süd, Leipzig;;Leipzig
Kowalski;Bar;51.331459066806275;12.365843666288495;Zentrum-Süd, Leipzig;;Leipzig
Coffito;Café;51.33194508558122;12.365932522917511;Zentrum-Süd, Leipzig;;Leipzig
SoupBAR Summarum;Soup Place;51.33228292222223;12.372737855555556;Zentrum-Süd, Leipzig;;Leipzig
Shiki Sushi Bar Two;Sushi Restaurant;51.33104;12.37406;Zentrum-Süd, Leipzig;;Leipzig
Spielplatz Rennbahnweg;Playground;51.32824658894171;12.362405195563555;Zentrum-Süd, Leipzig;;Leipzig
H Hohe Straße;Tram Station;51.32981307209731;12.373545647339089;Zentrum-Süd, Leipzig;;Leipzig
Bagel Brothers;Bagel Shop;51.331920182088574;12.37392468310646;Zentrum-Süd, Leipzig;;Leipzig
SUBWAY;Sandwich Place;51.33048861877092;12.373363392807732;Zentrum-Süd, Leipzig;;Leipzig
Flower-Power;Rock Club;51.33113519817535;12.374302190141128;Zentrum-Süd, Leipzig;;Leipzig
Rossmann;Drugstore;51.33057324803194;12.37366924232066;Zentrum-Süd, Leipzig;;Leipzig
Kreisel;Park;51.332294223343716;12.361979484558105;Zentrum-Süd, Leipzig;;Leipzig
Bäckerei & Konditorei Göbecke;Bakery;51.3450423278561;12.389252185821533;Zentrum-Ost, Leipzig;;Leipzig
Mückenschlösschen;Gastropub;51.349711782715396;12.355158791517464;Zentrum-Nordwest, Leipzig;;Leipzig
Diego Restaurant & Bar;South American Restaurant;51.34715319093132;12.35633297916312;Zentrum-Nordwest, Leipzig;;Leipzig
H Am Mückenschlösschen;Tram Station;51.34896743004161;12.355011407824794;Zentrum-Nordwest, Leipzig;;Leipzig
Konsum;Supermarket;51.349275422076786;12.352710916136349;Zentrum-Nordwest, Leipzig;;Leipzig
Trattoria No.1;Trattoria/Osteria;51.346937264730904;12.356704499437342;Zentrum-Nordwest, Leipzig;;Leipzig
PriNet Leipzig GmbH;IT Services;51.34695222737749;12.356046438217163;Zentrum-Nordwest, Leipzig;;Leipzig
Nordplatz;Plaza;51.35199129946057;12.374124526977539;Zentrum-Nord, Leipzig;;Leipzig
Stadtbad;Event Space;51.35222581724498;12.375980615615845;Zentrum-Nord, Leipzig;;Leipzig
Mercure Art Hotel;Hotel;51.349720309421635;12.376057606169455;Zentrum-Nord, Leipzig;;Leipzig
Konsum;Supermarket;51.34958934055808;12.37430363498408;Zentrum-Nord, Leipzig;;Leipzig
H Chausseehaus;Tram Station;51.35597465093977;12.376802078374322;Zentrum-Nord, Leipzig;;Leipzig
Backparadies & Coffeeshop Dünkel;Bakery;51.353183977435684;12.373507618904116;Zentrum-Nord, Leipzig;;Leipzig
Gleis 5 Bowling;Bowling Alley;51.357152874115094;12.377961957745965;Zentrum-Nord, Leipzig;;Leipzig
Marktplatz;Plaza;51.34033849851525;12.374609128771553;Zentrum, Leipzig;;Leipzig
Zeitgeschichtliches Forum;History Museum;51.33988099382927;12.376042913016267;Zentrum, Leipzig;;Leipzig
Motel One Nikolaikirche;Hotel;51.340666;12.377930000000001;Zentrum, Leipzig;;Leipzig
Steigenberger Grandhotel Handelshof;Hotel;51.34065555176771;12.37634079511297;Zentrum, Leipzig;;Leipzig
Nikolaikirche;Church;51.3405322694358;12.378226745860633;Zentrum, Leipzig;;Leipzig
Breuninger;Clothing Store;51.34008962111244;12.37410843372345;Zentrum, Leipzig;;Leipzig
Handbrotzeit;Bistro;51.34133821806146;12.37807091812168;Zentrum, Leipzig;;Leipzig
Fitness First Lifestyle Swim Club;Gym / Fitness Center;51.33883581096954;12.374923845403586;Zentrum, Leipzig;;Leipzig
Motel One Augustusplatz;Hotel;51.3397605350764;12.379088483047278;Zentrum, Leipzig;;Leipzig
Mephisto;Lounge;51.339588073600176;12.375476884364991;Zentrum, Leipzig;;Leipzig
Milchbar Pinguin;Ice Cream Shop;51.34144295774593;12.375083483981125;Zentrum, Leipzig;;Leipzig
Gourmetage;Deli / Bodega;51.339212239545596;12.376137024661867;Zentrum, Leipzig;;Leipzig
Panorama Tower - Plate of Art;Scenic Lookout;51.33795954630353;12.37894725513311;Zentrum, Leipzig;;Leipzig
Augustusplatz;Plaza;51.3390306509017;12.380948066711426;Zentrum, Leipzig;;Leipzig
Zuckerhut;Café;51.34136280109986;12.376679011196542;Zentrum, Leipzig;;Leipzig
Pizza Pasta House;Italian Restaurant;51.34127773893014;12.376669769446357;Zentrum, Leipzig;;Leipzig
Gewandhaus zu Leipzig;Concert Hall;51.338423835831385;12.380909296485605;Zentrum, Leipzig;;Leipzig
Mädler-Passage;Shopping Mall;51.33990345217793;12.375533350047741;Zentrum, Leipzig;;Leipzig
Moritzbastei;Nightclub;51.33756288355631;12.378998869323715;Zentrum, Leipzig;;Leipzig
Oper Leipzig;Opera House;51.340022999999995;12.381317999999998;Zentrum, Leipzig;;Leipzig
Krystallpalast Varieté Leipzig;Theater;51.33745682003681;12.376820699570885;Zentrum, Leipzig;;Leipzig
Bohemian Kids;Café;51.337744;12.377846;Zentrum, Leipzig;;Leipzig
dm-drogerie markt;Drugstore;51.33943640472436;12.378709279762235;Zentrum, Leipzig;;Leipzig
First Whisk(e)y Bar;Bar;51.34096981809015;12.379456254496358;Zentrum, Leipzig;;Leipzig
Museum der bildenden Künste;Art Museum;51.34235405349253;12.375269991402602;Zentrum, Leipzig;;Leipzig
Starbucks;Coffee Shop;51.3395441492987;12.379311157980206;Zentrum, Leipzig;;Leipzig
DEPOT;Gift Shop;51.33991933358815;12.376467791394699;Zentrum, Leipzig;;Leipzig
Café Madrid;Spanish Restaurant;51.34006998869012;12.372990902153905;Zentrum, Leipzig;;Leipzig
ALEX;Café;51.34058503;12.37603047;Zentrum, Leipzig;;Leipzig
Kildare City Pub;Pub;51.34086917804556;12.37360310085156;Zentrum, Leipzig;;Leipzig
IMPERII;Bistro;51.342215;12.379639;Zentrum, Leipzig;;Leipzig
Vapiano;Italian Restaurant;51.33926188382664;12.379692792892456;Zentrum, Leipzig;;Leipzig
Grimmaische Straße;Pedestrian Plaza;51.339730413409406;12.37799093962833;Zentrum, Leipzig;;Leipzig
Adina Hotel;Hotel;51.34278620986641;12.377548493581251;Zentrum, Leipzig;;Leipzig
Passage-Kinos;Indie Movie Theater;51.34209667576341;12.372237789104085;Zentrum, Leipzig;;Leipzig
Bagel Brothers;Bagel Shop;51.34282721569554;12.378279404428511;Zentrum, Leipzig;;Leipzig
Mr. Moto Sushi Bar;Sushi Restaurant;51.341275059254464;12.372257901257674;Zentrum, Leipzig;;Leipzig
Hans im Glück - Burgergrill;Burger Joint;51.33847633038663;12.379918243140876;Zentrum, Leipzig;;Leipzig
ZR Zchaca Restaurant;Sushi Restaurant;51.33759565149384;12.37175093117887;Zentrum, Leipzig;;Leipzig
Vienna House Easy Leipzig;Hotel;51.342510363641814;12.380926886651823;Zentrum, Leipzig;;Leipzig
Ratskeller der Stadt Leipzig;German Restaurant;51.336337598482075;12.373432627251574;Zentrum, Leipzig;;Leipzig
Brick's;Cocktail Bar;51.34277908484537;12.378200998684418;Zentrum, Leipzig;;Leipzig
Ganos Kaffeerösterei;Coffee Shop;51.338626675735334;12.371773214809453;Zentrum, Leipzig;;Leipzig
L'Osteria;Trattoria/Osteria;51.33751862966072;12.371594154305544;Zentrum, Leipzig;;Leipzig
Lego Store;Toy / Game Store;51.34331580922977;12.374164171958116;Zentrum, Leipzig;;Leipzig
Andria;Pizza Place;51.34178861397505;12.378222942352295;Zentrum, Leipzig;;Leipzig
Steaktrain;Steakhouse;51.343293192152956;12.379016876220705;Zentrum, Leipzig;;Leipzig
INNSIDE Leipzig;Hotel;51.33964056711192;12.370712757110596;Zentrum, Leipzig;;Leipzig
Radisson Blu Hotel Leipzig;Hotel;51.33812479719098;12.381910804123432;Zentrum, Leipzig;;Leipzig
Schillerpark;Park;51.336494778081864;12.376526229627812;Zentrum, Leipzig;;Leipzig
Valentino;Italian Restaurant;51.343285741984346;12.372905885329653;Zentrum, Leipzig;;Leipzig
EDEKA Schwarm;Supermarket;51.33884077102489;12.383113468531521;Zentrum, Leipzig;;Leipzig
Zum Kakadu Karaoke;Karaoke Bar;51.336603967171364;12.381121132399961;Zentrum, Leipzig;;Leipzig
Das Felix Im Lebendigen Haus;Hotel;51.339168;12.382415;Zentrum, Leipzig;;Leipzig
JOHN REED Fitness;Gym / Fitness Center;51.3390424;12.3824964;Zentrum, Leipzig;;Leipzig
Spagos Restaurant & Lounge;Restaurant;51.338025276797474;12.381913661956787;Zentrum, Leipzig;;Leipzig
tapir - Ausrüstung für Rucksackreisende GmbH;Sporting Goods Shop;51.34066;12.38331;Zentrum, Leipzig;;Leipzig
Packstation 146;Shipping Store;51.340516;12.383586;Zentrum, Leipzig;;Leipzig
Der Löwe - Das Lokal;German Restaurant;50.09455;8.494302000000001;Zeilsheim, Frankfurt;;Frankfurt
REWE;Supermarket;50.0973488;8.4980075;Zeilsheim, Frankfurt;;Frankfurt
Pizzeria D'Angelo;Italian Restaurant;50.09678462481097;8.491304080646595;Zeilsheim, Frankfurt;;Frankfurt
Burger Maik;Burger Joint;50.09714889526367;8.498071670532228;Zeilsheim, Frankfurt;;Frankfurt
Piazza Fontana;Italian Restaurant;52.43519563793024;13.257949294254987;Zehlendorf, Berlin;;Berlin
Butter Lindner;Gourmet Shop;52.4328213087944;13.259330523440134;Zehlendorf, Berlin;;Berlin
Alte Backstube;Café;52.435180536865886;13.257545469237762;Zehlendorf, Berlin;;Berlin
Liberty Pizza;Pizza Place;52.43561948342707;13.257882893178284;Zehlendorf, Berlin;;Berlin
Gartenhaus Café;Café;52.431332999999995;13.25823;Zehlendorf, Berlin;;Berlin
Civan's Döner;Doner Restaurant;52.43571654373096;13.260932094396475;Zehlendorf, Berlin;;Berlin
Garbatella;Italian Restaurant;52.43757299446411;13.257298646410401;Zehlendorf, Berlin;;Berlin
Block House;Steakhouse;52.431574054326155;13.2589731048735;Zehlendorf, Berlin;;Berlin
Sakura Sushi;Asian Restaurant;52.43567012074667;13.26141162346193;Zehlendorf, Berlin;;Berlin
dm-drogerie markt;Drugstore;52.433569999999996;13.260023;Zehlendorf, Berlin;;Berlin
BIO COMPANY;Organic Grocery;52.43370097636679;13.259823277048767;Zehlendorf, Berlin;;Berlin
dm-drogerie markt;Drugstore;52.43659914261846;13.261736347420426;Zehlendorf, Berlin;;Berlin
Fitness First;Gym / Fitness Center;52.43772417696904;13.262523114681244;Zehlendorf, Berlin;;Berlin
Spirit Yoga Zehlendorf;Yoga Studio;52.43149235482039;13.257144707795426;Zehlendorf, Berlin;;Berlin
Telekom Shop;Mobile Phone Shop;52.43470680813636;13.260650266861374;Zehlendorf, Berlin;;Berlin
Sixteen Bites;Fast Food Restaurant;52.431894526819846;13.259409070014954;Zehlendorf, Berlin;;Berlin
Café LebensArt;Café;52.43621657368682;13.261363551525063;Zehlendorf, Berlin;;Berlin
Deutsche Bank Filiale;Bank;52.434987300780676;13.259285849896967;Zehlendorf, Berlin;;Berlin
H&M;Clothing Store;52.431580000000004;13.259647;Zehlendorf, Berlin;;Berlin
Tomasa;Café;52.43489385337332;13.261979086450644;Zehlendorf, Berlin;;Berlin
Zehlendorfer Grill;Doner Restaurant;52.430659187300364;13.258585312663849;Zehlendorf, Berlin;;Berlin
TK Maxx;Big Box Store;52.437802304591806;13.262201759245727;Zehlendorf, Berlin;;Berlin
Gasthaus Kronprinz;German Restaurant;52.4381692144769;13.262149305623232;Zehlendorf, Berlin;;Berlin
Zehlendorfer Eiche;Tree;52.43507919371429;13.260008698286462;Zehlendorf, Berlin;;Berlin
REWE;Supermarket;52.43708953743386;13.262295330759;Zehlendorf, Berlin;;Berlin
Subway;Sandwich Place;52.42994122046256;13.259903320420447;Zehlendorf, Berlin;;Berlin
Mittelhof;Café;52.43394668206985;13.254495858633607;Zehlendorf, Berlin;;Berlin
Best Western loftstyle Hotel Stuttgart-Zuffenhausen;Hotel;48.8383047;9.1887208;Zazenhausen, Stuttgart;;Stuttgart
TV Zazenhausen;Soccer Field;48.84196859526568;9.191582498515904;Zazenhausen, Stuttgart;;Stuttgart
Hahn Im Korb;Food Truck;48.838173511122676;9.196352384822744;Zazenhausen, Stuttgart;;Stuttgart
Hotel Krone;Hotel;51.06534194946289;6.866322994232178;Worringen, Köln;;Köln
Hotel Matheisen;Hotel;51.064535082905;6.866395099445268;Worringen, Köln;;Köln
Worringer Grill;Burger Joint;51.06346950259129;6.862759206289749;Worringen, Köln;;Köln
EDEKA Stahl;Supermarket;51.06366677;6.86100064;Worringen, Köln;;Köln
Wolfbusch Ei;Arts & Entertainment;48.80439157437286;9.104931765263178;Wolfbusch, Stuttgart;;Stuttgart
U Wolfbusch;Metro Station;48.80714610045553;9.105091094970703;Wolfbusch, Stuttgart;;Stuttgart
SG Weilimdorf;Soccer Field;48.80633711775196;9.103199382041758;Wolfbusch, Stuttgart;;Stuttgart
Eiskeller;Memorial Site;53.70308350998789;10.130038261413574;Wohldorf-Ohlstedt, Hamburg;;Hamburg
Gasthaus Peters;German Restaurant;51.32121587633175;6.739247618249417;Wittlaer, Düsseldorf;;Düsseldorf
Bäcker Wolff;Bakery;51.32063483772364;6.744787693136258;Wittlaer, Düsseldorf;;Düsseldorf
Im Jäger;German Restaurant;51.3206255631161;6.744812365801572;Wittlaer, Düsseldorf;;Düsseldorf
U Wittlaer;Metro Station;51.318344369609434;6.745336876952622;Wittlaer, Düsseldorf;;Düsseldorf
Dorfaue;Eastern European Restaurant;52.592863396794606;13.322791497248039;Wittenau, Berlin;;Berlin
Ratskeller Reinickendorf;German Restaurant;52.590035502722436;13.324924180792415;Wittenau, Berlin;;Berlin
Schupke;Restaurant;52.59132780259446;13.326414268563877;Wittenau, Berlin;;Berlin
Ernst-Reuter-Saal;Concert Hall;52.58868129405055;13.324727901775008;Wittenau, Berlin;;Berlin
Carpaccio;Italian Restaurant;52.59295604028826;13.323801429784705;Wittenau, Berlin;;Berlin
Triftpark;Park;52.58945797903778;13.318926234786902;Wittenau, Berlin;;Berlin
Revierpark Wischlingen;Park;51.521080948564816;7.403411865234375;Wischlingen, Dortmund;;Dortmund
Tree2Tree;Rock Climbing Spot;51.520132289304975;7.4015552090441075;Wischlingen, Dortmund;;Dortmund
Perfect Style;Salon / Barbershop;51.52675999999999;7.401100000000043;Wischlingen, Dortmund;;Dortmund
Arena Dortmund;Gym;51.52678;7.402209999999968;Wischlingen, Dortmund;;Dortmund
MAGAZIN-Filmkunsttheater;Indie Movie Theater;53.59976217859377;10.003804646110007;Winterhude, Hamburg;;Hamburg
Planetarium Hamburg;Planetarium;53.597330214075996;10.008937918142657;Winterhude, Hamburg;;Hamburg
Bäckerei Rohlfs;Bakery;53.595007289591244;9.999854564666748;Winterhude, Hamburg;;Hamburg
das BISTRO;Bistro;53.59656499466485;9.997314718197499;Winterhude, Hamburg;;Hamburg
Café Galão;Portuguese Restaurant;53.59704120921114;9.997001359374755;Winterhude, Hamburg;;Hamburg
MEM Open Kitchen;Mediterranean Restaurant;53.59654761538901;9.997506502048608;Winterhude, Hamburg;;Hamburg
Kailua Poké;Hawaiian Restaurant;53.596603510694955;9.997669352066005;Winterhude, Hamburg;;Hamburg
Loft;Café;53.59599;10.002032;Winterhude, Hamburg;;Hamburg
Arizona Steak-House;Steakhouse;53.59334027074522;10.00055469526614;Winterhude, Hamburg;;Hamburg
dm-drogerie markt;Drugstore;53.59469220498072;10.00057309325416;Winterhude, Hamburg;;Hamburg
Café Quiddje;Café;53.5927193099345;10.002152938976757;Winterhude, Hamburg;;Hamburg
L'Osteria;Trattoria/Osteria;53.595036640141366;9.999236268105518;Winterhude, Hamburg;;Hamburg
Rossmann;Drugstore;53.59432923773619;10.000766831666338;Winterhude, Hamburg;;Hamburg
Die Lakritzerie;Candy Store;53.59409143418832;10.000159110291738;Winterhude, Hamburg;;Hamburg
Midsommerland;Water Park;53.447086337851935;9.980525344576092;Wilstorf, Hamburg;;Hamburg
REWE;Supermarket;53.44847867403902;9.987369125611169;Wilstorf, Hamburg;;Hamburg
Bootshaus;German Restaurant;53.44819540788501;9.98134224414438;Wilstorf, Hamburg;;Hamburg
Außenmühlenteich;Lake;53.4474266897611;9.977431297302246;Wilstorf, Hamburg;;Hamburg
Bahadur;Indian Restaurant;52.48779080041393;13.319594974738456;Wilmersdorf, Berlin;;Berlin
BIO COMPANY;Organic Grocery;52.48570423099271;13.322515569086509;Wilmersdorf, Berlin;;Berlin
Rossmann;Drugstore;52.486447272368075;13.32167665124368;Wilmersdorf, Berlin;;Berlin
EVA Lichtspiele;Indie Movie Theater;52.484641518113136;13.320160541709342;Wilmersdorf, Berlin;;Berlin
Yoshioka;Japanese Restaurant;52.48798972194057;13.317926134259867;Wilmersdorf, Berlin;;Berlin
Francesco Forgione;Italian Restaurant;52.48740268473961;13.322821855545044;Wilmersdorf, Berlin;;Berlin
A Telha;Seafood Restaurant;52.49052;13.325013;Wilmersdorf, Berlin;;Berlin
Garçon;French Restaurant;52.48934819776054;13.319556529543785;Wilmersdorf, Berlin;;Berlin
Vino y Mar;Tapas Restaurant;52.487628;13.321613000000001;Wilmersdorf, Berlin;;Berlin
Weichardt Brot;Bakery;52.485951801874144;13.32616546826688;Wilmersdorf, Berlin;;Berlin
Istanbul Grill;Doner Restaurant;52.486741701588656;13.320035683184551;Wilmersdorf, Berlin;;Berlin
Les 3 veuves de Wilmersdorf;French Restaurant;52.489290357815726;13.319579852846744;Wilmersdorf, Berlin;;Berlin
ANH BA;Vietnamese Restaurant;52.487191;13.326351;Wilmersdorf, Berlin;;Berlin
Back-Art 132;Bakery;52.486433610054995;13.321500226419456;Wilmersdorf, Berlin;;Berlin
Les Baguettes;Bakery;52.48666443001229;13.326319456100464;Wilmersdorf, Berlin;;Berlin
West Burger;Burger Joint;52.48686340440469;13.322549768532514;Wilmersdorf, Berlin;;Berlin
Bobsek Burger;Burger Joint;52.48679701227592;13.323886164039473;Wilmersdorf, Berlin;;Berlin
EDEKA;Supermarket;52.4867891;13.3255348;Wilmersdorf, Berlin;;Berlin
Tegernseer Tönnchen;Bavarian Restaurant;52.48643954192765;13.317532382938062;Wilmersdorf, Berlin;;Berlin
Monheim;Ice Cream Shop;52.48514046140478;13.320466553424966;Wilmersdorf, Berlin;;Berlin
Sushi Miyabi;Sushi Restaurant;52.48713535160029;13.322618868340347;Wilmersdorf, Berlin;;Berlin
AssaTir;Falafel Restaurant;52.489430904904644;13.32280384030698;Wilmersdorf, Berlin;;Berlin
Aral;Gas Station;52.48427111;13.32072707;Wilmersdorf, Berlin;;Berlin
Salumeria Veneto;Italian Restaurant;52.4894177089186;13.319841167621243;Wilmersdorf, Berlin;;Berlin
Pho Bay;Vietnamese Restaurant;52.486507612424795;13.323098165029881;Wilmersdorf, Berlin;;Berlin
Boulderworx;Climbing Gym;52.486880553428776;13.318214828154574;Wilmersdorf, Berlin;;Berlin
Tulum;Mexican Restaurant;52.4830587748448;13.320454716849785;Wilmersdorf, Berlin;;Berlin
Hotel-Pension Gasteiner Hof;Hotel;52.48731670631572;13.323412853587275;Wilmersdorf, Berlin;;Berlin
Lidl;Supermarket;52.48676769999999;13.3249204;Wilmersdorf, Berlin;;Berlin
Thoben's Backwaren;Bakery;52.48663242642978;13.32377125447118;Wilmersdorf, Berlin;;Berlin
Max & Moritz;Doner Restaurant;52.48670680811843;13.3225238633973;Wilmersdorf, Berlin;;Berlin
Ibis Berlin City West;Hotel;52.48911863352239;13.316606958228705;Wilmersdorf, Berlin;;Berlin
Bäcker Wiedemann;Bakery;52.48635687467388;13.320957389696972;Wilmersdorf, Berlin;;Berlin
Spielbrett;Toy / Game Store;52.4863821868586;13.321963375162207;Wilmersdorf, Berlin;;Berlin
Galeb-Grill;Eastern European Restaurant;52.486429878997825;13.320120925230624;Wilmersdorf, Berlin;;Berlin
Uhland-Eck;Bar;52.486541592643604;13.322584305934102;Wilmersdorf, Berlin;;Berlin
OBETA electro - Oskar Böttcher GmbH & Co. KG;Hardware Store;52.485641959417;13.318573236465454;Wilmersdorf, Berlin;;Berlin
Adria-Grill;Restaurant;52.486580839373474;13.324183967378914;Wilmersdorf, Berlin;;Berlin
Sky Fox;Hobby Shop;52.48963100536253;13.320996560573265;Wilmersdorf, Berlin;;Berlin
H Am Volkspark;Bus Stop;52.48406310671172;13.320174943371933;Wilmersdorf, Berlin;;Berlin
Sportplatz Volkspark Wilmersdorf;Soccer Field;52.48385176197198;13.322596549987793;Wilmersdorf, Berlin;;Berlin
Grün Elektro;Lighting Store;52.486756022002524;13.327186336749206;Wilmersdorf, Berlin;;Berlin
Südpark;Park;52.516534249608384;13.191833496093748;Wilhelmstadt, Berlin;;Berlin
auf'm Boot;Boat or Ferry;52.51226018447523;13.193864018366325;Wilhelmstadt, Berlin;;Berlin
Segler-Club Gothia;Harbor / Marina;52.51177070345582;13.193717286841284;Wilhelmstadt, Berlin;;Berlin
H Alt-Pichelsdorf;Bus Stop;52.5133094654456;13.196077990558292;Wilhelmstadt, Berlin;;Berlin
Netto Filiale;Supermarket;52.5126481;13.1963987;Wilhelmstadt, Berlin;;Berlin
AWN Wassersportzentrum;Sporting Goods Shop;52.512855253136884;13.197339271041624;Wilhelmstadt, Berlin;;Berlin
Yachthafen Angermann;Harbor / Marina;52.51135470969467;13.196414765942096;Wilhelmstadt, Berlin;;Berlin
H Heerstraße / Wilhelmstraße;Bus Stop;52.51570629637754;13.185494565052831;Wilhelmstadt, Berlin;;Berlin
H Gatower Straße / Heerstraße;Bus Stop;52.51544131231973;13.184831749034586;Wilhelmstadt, Berlin;;Berlin
Grimnitzsee;Lake;52.514918161946056;13.198507222421267;Wilhelmstadt, Berlin;;Berlin
Mexico Restaurant;Mexican Restaurant;52.58513795374542;13.36463212966919;Wilhelmsruh, Berlin;;Berlin
Garibalditeich;Lake;52.586191916493355;13.362344676799607;Wilhelmsruh, Berlin;;Berlin
H Hertzstraße / Fontanestraße;Bus Stop;52.5853461245125;13.360656195534828;Wilhelmsruh, Berlin;;Berlin
Asia Bistro HOA;Asian Restaurant;52.585962126394136;13.367059062685197;Wilhelmsruh, Berlin;;Berlin
EDEKA Görse & Meichsner;Supermarket;52.5864878561707;13.367644751658537;Wilhelmsruh, Berlin;;Berlin
Post;Post Office;52.58705655521046;13.367998522184985;Wilhelmsruh, Berlin;;Berlin
Schnattertinchen;Café;52.58579602746108;13.367011363165359;Wilhelmsruh, Berlin;;Berlin
H Hertzstraße / Hauptstraße;Bus Stop;52.58491185311775;13.365818387313487;Wilhelmsruh, Berlin;;Berlin
Bäcker an der Ecke;Bakery;52.58485953210425;13.366026905509331;Wilhelmsruh, Berlin;;Berlin
EDEKA Leher;Supermarket;52.43152423;13.71460071;Wilhelmshagen, Berlin;;Berlin
La Rovina;Italian Restaurant;52.43226089551483;13.713112714830586;Wilhelmshagen, Berlin;;Berlin
Laguneneck;German Restaurant;52.431897025217715;13.713365134399385;Wilhelmshagen, Berlin;;Berlin
Wasserwerk Wilhelmsburg;German Restaurant;53.49531503231035;9.995465743416274;Wilhelmsburg, Hamburg;;Hamburg
Geheimnisvolle Insel;Playground;53.49278396018886;9.993291876803026;Wilhelmsburg, Hamburg;;Hamburg
Willi Villa;Bistro;53.490694490402525;9.999894405496343;Wilhelmsburg, Hamburg;;Hamburg
Bunthaus Schankraum;Beer Bar;53.495602000000005;9.995353999999999;Wilhelmsburg, Hamburg;;Hamburg
Hanserock Hochseilgarten;Athletics & Sports;53.49295462862672;10.003222669964618;Wilhelmsburg, Hamburg;;Hamburg
Hotel & Restaurant Hiemann;Hotel;51.395364;12.371571000000001;Wiederitzsch, Leipzig;;Leipzig
EDEKA;Supermarket;51.392591880712615;12.37684965133667;Wiederitzsch, Leipzig;;Leipzig
H Wiederitzsch-Mitte;Tram Station;51.39346117255355;12.376274866406922;Wiederitzsch, Leipzig;;Leipzig
diska Leipzig-Wiederitzsch;Supermarket;51.39346218;12.37490219;Wiederitzsch, Leipzig;;Leipzig
Hotel Zum Abschlepphof;Hotel;51.39187747216629;12.373274967214206;Wiederitzsch, Leipzig;;Leipzig
Days Inn;Hotel;51.394805902756644;12.381003190108919;Wiederitzsch, Leipzig;;Leipzig
Eiscafé Dolomiti Due;Ice Cream Shop;50.96525683967202;6.832460154424801;Widdersdorf, Köln;;Köln
EDEKA;Supermarket;50.96053892490365;6.830817447291638;Widdersdorf, Köln;;Köln
Pizzeria Arcobaleno;Italian Restaurant;50.96457847583311;6.830746416289254;Widdersdorf, Köln;;Köln
Schmitz & Nittenwilm Widdersdorf;Bakery;50.965878000000004;6.831973;Widdersdorf, Köln;;Köln
Melita;Pizza Place;50.966844;6.835789999999999;Widdersdorf, Köln;;Köln
Spielplatz am Jakobsweg;Playground;50.96128732796018;6.83330964618394;Widdersdorf, Köln;;Köln
Gasthaus Linde;Gastropub;50.967130113473644;6.8363285064697275;Widdersdorf, Köln;;Köln
Nelles - Die Backmanufaktur;Bakery;50.960615000000004;6.830883;Widdersdorf, Köln;;Köln
LöWi Arena;Soccer Field;50.96523398787944;6.837816582809116;Widdersdorf, Köln;;Köln
EDEKA Patzer;Supermarket;51.532823799999996;7.609601499999999;Wickede, Dortmund;;Dortmund
Pizzeria Pinocchio;Pizza Place;51.53212768049935;7.608890465109737;Wickede, Dortmund;;Dortmund
Lidl;Supermarket;51.532823799999996;7.609601499999999;Wickede, Dortmund;;Dortmund
dm-drogerie markt;Drugstore;51.532096159851406;7.611713486124472;Wickede, Dortmund;;Dortmund
Shell;Gas Station;51.53173593;7.60821126;Wickede, Dortmund;;Dortmund
Restaurant Plaka;Greek Restaurant;51.5303223463519;7.608705195421799;Wickede, Dortmund;;Dortmund
REWE;Supermarket;51.53264685;7.61202861;Wickede, Dortmund;;Dortmund
myDöner;Fast Food Restaurant;51.53232563958126;7.6112715188299465;Wickede, Dortmund;;Dortmund
Grill Store;Burger Joint;51.53177;7.61092;Wickede, Dortmund;;Dortmund
S Dortmund-Wickede West;Light Rail Station;51.529455926379136;7.607870909517728;Wickede, Dortmund;;Dortmund
Niederhofner Wald;Trail;51.453079365506156;7.493947195707452;Wichlinghofen, Dortmund;;Dortmund
McFIT;Gym / Fitness Center;51.4552;6.999699000000001;Westviertel, Essen;;Essen
Schöner Alfred;Restaurant;51.45449684585118;6.994842804841013;Westviertel, Essen;;Essen
Conrad Electronic;Electronics Store;51.45855518946568;6.999159727944595;Westviertel, Essen;;Essen
Delta-Musik-Park;Nightclub;51.454372320220955;6.994831157601722;Westviertel, Essen;;Essen
Mocca cafeteria;Cafeteria;51.461619582176965;6.992911212071662;Westviertel, Essen;;Essen
Grammophon Restaurant;Mediterranean Restaurant;51.515778000000005;7.349224;Westrich, Dortmund;;Dortmund
Grammophon Meyhane;Restaurant;51.515809999999995;7.349238400000001;Westrich, Dortmund;;Dortmund
subTONE Tonstudio;Concert Hall;51.517216999999995;7.348492;Westrich, Dortmund;;Dortmund
Torfabrik;Sports Bar;51.517706;7.3476;Westrich, Dortmund;;Dortmund
Haus Dellwig und Heimatmuseum Lütgendortmund 1988 e.V.;Museum;51.51009751758523;7.3491946634551955;Westrich, Dortmund;;Dortmund
Body Up;Gym / Fitness Center;48.11433518828865;11.517885686891088;Westpark, München;;München
Lotto Bayern;Lottery Retailer;48.118190000000006;11.513010000000001;Westpark, München;;München
H Hinterbärenbadstraße;Bus Stop;48.1205855976783;11.518356039428825;Westpark, München;;München
Fonél;Coffee Shop;48.12088;11.519027000000001;Westpark, München;;München
Gastwerk im Engelshof;German Restaurant;50.90016396864551;7.020864486694335;Westhoven, Köln;;Köln
H Westhoven Berliner Straße;Tram Station;50.901480970033276;7.025081306892855;Westhoven, Köln;;Köln
Hotel-Restaurant Zündorf;Hotel;50.90168958469104;7.025326547918722;Westhoven, Köln;;Köln
Abenteuerspielplatz;Playground;50.89996097639752;7.0277416706085205;Westhoven, Köln;;Köln
Westerfilder Backstube;Bakery;51.545074;7.3736690000000005;Westerfilde, Dortmund;0.0;Dortmund
M-Steakhouse;Steakhouse;50.11478186640996;8.662610545276616;Westend-Süd, Frankfurt;;Frankfurt
Westendplatz;Plaza;50.113093105004175;8.661861419677733;Westend-Süd, Frankfurt;;Frankfurt
Das Nudel Ding;Chinese Restaurant;50.115797317739116;8.66336199036083;Westend-Süd, Frankfurt;;Frankfurt
Saverio's Florian;Italian Restaurant;50.11576745976164;8.66407603102161;Westend-Süd, Frankfurt;;Frankfurt
La Scuderia;Italian Restaurant;50.11546422548535;8.66288060801947;Westend-Süd, Frankfurt;;Frankfurt
Backstube Liebesbrot;Bakery;50.11632743838428;8.658263256512631;Westend-Süd, Frankfurt;;Frankfurt
Westend Brunch;Restaurant;50.11565103358683;8.664784338916395;Westend-Süd, Frankfurt;;Frankfurt
l'unico;Italian Restaurant;50.118159173447246;8.659280367932714;Westend-Süd, Frankfurt;;Frankfurt
Matsuri;Japanese Restaurant;50.113049871247355;8.665334095280619;Westend-Süd, Frankfurt;;Frankfurt
Takumi;Ramen Restaurant;50.114490999999994;8.657377;Westend-Süd, Frankfurt;;Frankfurt
Prime Time Fitness;Gym;50.11758917309609;8.666661571867992;Westend-Süd, Frankfurt;;Frankfurt
Block House;Steakhouse;50.118215893022956;8.663224330467315;Westend-Süd, Frankfurt;;Frankfurt
Ristorante Azzurro - La Cucina Italiana;Italian Restaurant;50.113520494112045;8.659877878439037;Westend-Süd, Frankfurt;;Frankfurt
Les Deux Messieurs;Bakery;50.11859689017302;8.661947250366211;Westend-Süd, Frankfurt;;Frankfurt
Ristorante Paparazzi 2;Italian Restaurant;50.11467697516178;8.65745806541554;Westend-Süd, Frankfurt;;Frankfurt
Il Vino;Italian Restaurant;50.11216340380054;8.666176283821413;Westend-Süd, Frankfurt;;Frankfurt
The Ivory Club;Indian Restaurant;50.114309000000006;8.669108999999999;Westend-Süd, Frankfurt;;Frankfurt
Kiosk Destino;Convenience Store;50.111289064693615;8.662984596424065;Westend-Süd, Frankfurt;;Frankfurt
Mon Amie Maxi;French Restaurant;50.116502773084186;8.667199372838764;Westend-Süd, Frankfurt;;Frankfurt
Embassy;Bar;50.11193066280792;8.666372211540995;Westend-Süd, Frankfurt;;Frankfurt
La Cantine Cafe & Bistro;Bistro;50.11575119094375;8.668751429280487;Westend-Süd, Frankfurt;;Frankfurt
Mainhattan Sports;Gym / Fitness Center;50.11182685614125;8.658027455186744;Westend-Süd, Frankfurt;;Frankfurt
The Black Bulls;Steakhouse;50.11927496863152;8.659621553115848;Westend-Süd, Frankfurt;;Frankfurt
Ranch & Sea Steakhouse;Steakhouse;50.11883732471326;8.666079508894871;Westend-Süd, Frankfurt;;Frankfurt
Café Laumer;Café;50.11825085379621;8.662698063438878;Westend-Süd, Frankfurt;;Frankfurt
REWE;Supermarket;50.118596420042365;8.662552729354504;Westend-Süd, Frankfurt;;Frankfurt
Mariott Executive Lounge Frankfurt;Hotel Bar;50.11505873688727;8.655440166540217;Westend-Süd, Frankfurt;;Frankfurt
Hoppenworth & Ploch;Coffee Shop;50.1292531905969;8.666159972194967;Westend-Nord, Frankfurt;;Frankfurt
Grüneburgpark;Park;50.12751167954746;8.661582469940187;Westend-Nord, Frankfurt;;Frankfurt
Koreanischer Garten;Garden;50.126965807964204;8.663922994863968;Westend-Nord, Frankfurt;;Frankfurt
Surf&Turf;American Restaurant;50.12325109005784;8.664897490477747;Westend-Nord, Frankfurt;;Frankfurt
Westlage;Wine Bar;50.12253;8.66742;Westend-Nord, Frankfurt;;Frankfurt
Weinsinn Restaurant;Gastropub;50.1243791403836;8.671704621470951;Westend-Nord, Frankfurt;;Frankfurt
La Boveda;Spanish Restaurant;50.12268779322747;8.664401912816784;Westend-Nord, Frankfurt;;Frankfurt
Vini da Sabatini;Italian Restaurant;50.122441096383454;8.667215401082732;Westend-Nord, Frankfurt;;Frankfurt
Matildas Kitchen;Bistro;50.12218841766716;8.668006671616109;Westend-Nord, Frankfurt;;Frankfurt
Demera;Ethiopian Restaurant;50.12673325016081;8.674298198807053;Westend-Nord, Frankfurt;;Frankfurt
Eisenhower Rotunde;Café;50.12575726563399;8.667367296396604;Westend-Nord, Frankfurt;;Frankfurt
REWE CITY;Supermarket;50.12761168212025;8.671466180253788;Westend-Nord, Frankfurt;;Frankfurt
Allgaiers;German Restaurant;50.12253;8.664741000000001;Westend-Nord, Frankfurt;;Frankfurt
Café K;Café;52.50978918059654;13.255226877423386;Westend, Berlin;;Berlin
Westend Klause;Bar;52.516493999999994;13.260109;Westend, Berlin;;Berlin
Georg-Kolbe-Museum;Art Museum;52.50988349489067;13.255111074929948;Westend, Berlin;;Berlin
Wiener Conditorei Caffeehaus am Steubenplatz;Café;52.516070751253146;13.260251416623968;Westend, Berlin;;Berlin
Rossmann;Drugstore;52.51527688160554;13.262164141438525;Westend, Berlin;;Berlin
Il Cardinale;Italian Restaurant;52.516325;13.259847;Westend, Berlin;;Berlin
H U Neu-Westend;Bus Stop;52.516273095032226;13.260347843170164;Westend, Berlin;;Berlin
Butter Lindner;Gourmet Shop;52.51619348836822;13.260541009231465;Westend, Berlin;;Berlin
Steubenplatz;Plaza;52.51620646150641;13.260896236744173;Westend, Berlin;;Berlin
Ital. Eis Gloria;Ice Cream Shop;52.5162587700766;13.260991698685277;Westend, Berlin;;Berlin
Schlossplatz;Plaza;48.77854905890561;9.17985498905182;West, Stuttgart;;Stuttgart
Altes Schloss;History Museum;48.7771680490656;9.179526070063034;West, Stuttgart;;Stuttgart
Landesmuseum Württemberg;Museum;48.77714306058692;9.179541602158851;West, Stuttgart;;Stuttgart
Die Bierothek;Beer Store;48.77919805797462;9.178369045257568;West, Stuttgart;;Stuttgart
Oberer Schlossgarten;Park;48.78000249122962;9.182439617316208;West, Stuttgart;;Stuttgart
Old Bridge;Ice Cream Shop;48.78000725303375;9.177899287099294;West, Stuttgart;;Stuttgart
Königstraße;Pedestrian Plaza;48.77819555801041;9.17809009552002;West, Stuttgart;;Stuttgart
Markthalle;Market;48.77614470091334;9.179335327968657;West, Stuttgart;;Stuttgart
Feinkost Böhm;Gourmet Shop;48.778077453736884;9.176316993145603;West, Stuttgart;;Stuttgart
Schillerplatz;Plaza;48.77717035374872;9.178736615471523;West, Stuttgart;;Stuttgart
Kunstmuseum Stuttgart;Art Museum;48.778150182446716;9.1779244627344;West, Stuttgart;;Stuttgart
Kleiner Schlossplatz;Plaza;48.778393791859294;9.17685979799192;West, Stuttgart;;Stuttgart
Oggi Tavola Mediterranea;Italian Restaurant;48.77883534646972;9.176265592920815;West, Stuttgart;;Stuttgart
Karlsplatz;Park;48.77659076360696;9.180966784404694;West, Stuttgart;;Stuttgart
Waranga;Bar;48.77855215747992;9.177410799660745;West, Stuttgart;;Stuttgart
Carls Brauhaus;Brewery;48.77905275696649;9.179677043794742;West, Stuttgart;;Stuttgart
Metropol Kino;Movie Theater;48.78021027370282;9.177686106586961;West, Stuttgart;;Stuttgart
Neues Schloss;Palace;48.77796931613101;9.181898832321165;West, Stuttgart;;Stuttgart
Buchhaus Wittwer;Bookstore;48.777862895929296;9.177516533822256;West, Stuttgart;;Stuttgart
Brauhaus Schönbuch;German Restaurant;48.780341350383885;9.178252684512566;West, Stuttgart;;Stuttgart
Palast der Republik;Beer Garden;48.780572410026615;9.177211633995974;West, Stuttgart;;Stuttgart
Coffreez;Coffee Shop;48.77979453223544;9.179473874412949;West, Stuttgart;;Stuttgart
Eduard's;Cocktail Bar;48.77553673369719;9.179934613561988;West, Stuttgart;;Stuttgart
Heart & Sole;Sporting Goods Shop;48.77872979041892;9.177254663700829;West, Stuttgart;;Stuttgart
Cube;Restaurant;48.778288796596975;9.177706555133373;West, Stuttgart;;Stuttgart
Sansibar;German Restaurant;48.77533050525256;9.18048091545826;West, Stuttgart;;Stuttgart
Staatsoper Stuttgart;Opera House;48.77936917139513;9.18433427810669;West, Stuttgart;;Stuttgart
Weinhandlung & Weinbar Kreis;Wine Shop;48.77675812787134;9.178656157759413;West, Stuttgart;;Stuttgart
San's Bistro & Weinbar;Sandwich Place;48.778766606073475;9.176832365330077;West, Stuttgart;;Stuttgart
Gloria Kino;Movie Theater;48.780269999444506;9.178807590031012;West, Stuttgart;;Stuttgart
Marktplatz;Plaza;48.77527972503773;9.178327885301352;West, Stuttgart;;Stuttgart
Sushi-Ya;Sushi Restaurant;48.77746052873597;9.175435468797998;West, Stuttgart;;Stuttgart
Cavos Taverna Stuttgart;Taverna;48.78149040209631;9.178606604786294;West, Stuttgart;;Stuttgart
bungalow;Men's Store;48.776174621819784;9.177969551802711;West, Stuttgart;;Stuttgart
Go Asia Asien Supermarkt;Supermarket;48.78153;9.181855;West, Stuttgart;;Stuttgart
California Bounge;Lounge;48.7800511927073;9.175979058815878;West, Stuttgart;;Stuttgart
Breuninger;Department Store;48.77493616246726;9.179795980453493;West, Stuttgart;;Stuttgart
Alte Kanzlei;German Restaurant;48.77763953488208;9.178852050050422;West, Stuttgart;;Stuttgart
Holanka Bar;Café;48.77612147606333;9.178086826413422;West, Stuttgart;;Stuttgart
enso Sushi & Grill;Japanese Restaurant;48.77538648763747;9.182065444129725;West, Stuttgart;;Stuttgart
Sky Beach Stuttgart;Beach Bar;48.78202600729646;9.180950122707387;West, Stuttgart;;Stuttgart
Motel One Stuttgart-Hauptbahnhof;Hotel;48.78207191433852;9.1790330349188;West, Stuttgart;;Stuttgart
Old Bridge;Ice Cream Shop;48.77417318950248;9.179273717618713;West, Stuttgart;;Stuttgart
Louis Vuitton;Boutique;48.7756571;9.1797474;West, Stuttgart;;Stuttgart
Zara;Clothing Store;48.7810135333768;9.180603167252713;West, Stuttgart;;Stuttgart
Thai-Restaurant Tiffany;Thai Restaurant;48.77585918362092;9.176997893598452;West, Stuttgart;;Stuttgart
Alanya 2;Fast Food Restaurant;51.18678094953015;6.821502943685025;Wersten, Düsseldorf;;Düsseldorf
REWE;Supermarket;51.1864757306027;6.81838978473388;Wersten, Düsseldorf;;Düsseldorf
Kamps;Bakery;51.19064441972438;6.816086076331277;Wersten, Düsseldorf;;Düsseldorf
Bäckerei Cafe Bader;Bakery;51.18883875123888;6.817960739135742;Wersten, Düsseldorf;;Düsseldorf
Olympia Haus;Pizza Place;51.19119105262829;6.815783722772141;Wersten, Düsseldorf;;Düsseldorf
PENNY;Supermarket;51.191116183946065;6.8152916723431645;Wersten, Düsseldorf;;Düsseldorf
China Haus;Asian Restaurant;51.19142028206746;6.814692825670981;Wersten, Düsseldorf;;Düsseldorf
Deckel;Park;51.19232480636246;6.818544442699608;Wersten, Düsseldorf;;Düsseldorf
Alanya 2;Turkish Restaurant;51.186735;6.818903999999999;Wersten, Düsseldorf;;Düsseldorf
Stadtbäckerei;Bakery;51.18678897713365;6.821481859860616;Wersten, Düsseldorf;;Düsseldorf
Bäckerei Café Oebel;Bakery;51.18672278049388;6.821451706621356;Wersten, Düsseldorf;;Düsseldorf
H Werstener Dorfstraße;Tram Station;51.19325917003086;6.814630963145553;Wersten, Düsseldorf;;Düsseldorf
Kikas Eiscafé;Ice Cream Shop;51.38821575;7.00257136;Werden, Essen;;Essen
Sorelli's Frozen Yogurt & Eisbar;Ice Cream Shop;51.387633838674404;7.000303349235133;Werden, Essen;;Essen
La Tombola;Pizza Place;51.38825540387187;7.001725544230917;Werden, Essen;;Essen
Brehminsel;Park;51.39047634263299;6.998891830444336;Werden, Essen;;Essen
Schiffers im alten Löwen;German Restaurant;51.38811108310562;7.001194698885688;Werden, Essen;;Essen
Altstadt Werden;Historic Site;51.38832955008874;7.002729758349018;Werden, Essen;;Essen
Arche Noah;Gastropub;51.38685092411628;7.004233649857178;Werden, Essen;;Essen
Café Werntges;Café;51.38902124784361;7.000990842294796;Werden, Essen;;Essen
SUBWAY;Sandwich Place;51.38793562724175;7.00099164362739;Werden, Essen;;Essen
Buena Vida;Tapas Restaurant;51.38531433147358;7.000950955247343;Werden, Essen;;Essen
del;Restaurant;53.64715982701538;10.087679179929252;Wellingsbüttel, Hamburg;;Hamburg
Whisky Depot;Liquor Store;53.647145261517174;10.088409129594133;Wellingsbüttel, Hamburg;;Hamburg
REWE;Supermarket;51.465559999999996;7.4940690000000005;Wellinghofen, Dortmund;;Dortmund
TOTAL Tankstelle;Gas Station;51.468070000000004;7.492868;Wellinghofen, Dortmund;;Dortmund
Dortmunder Volksbank, Filiale Wellinghofen;Bank;51.4696249;7.490741000000001;Wellinghofen, Dortmund;;Dortmund
Netto City;Supermarket;51.47133;7.490460000000001;Wellinghofen, Dortmund;;Dortmund
Strandbad Weißensee;Beach;52.553869069758136;13.465636422198884;Weißensee, Berlin;;Berlin
Park am Weißen See;Park;52.55283512189626;13.461959213912117;Weißensee, Berlin;;Berlin
Parkstern;German Restaurant;52.554768822220424;13.45832524762902;Weißensee, Berlin;;Berlin
Living Hotel Weißensee;Hotel;52.55430565163825;13.457305937972706;Weißensee, Berlin;;Berlin
Bambus am See;Vietnamese Restaurant;52.55067825317383;13.461772918701172;Weißensee, Berlin;;Berlin
Milchhäuschen;German Restaurant;52.55455571605618;13.461225123079204;Weißensee, Berlin;;Berlin
Oldtimer am Rhein;Rental Car Location;50.873390960135936;7.030576765537263;Weiß, Köln;;Köln
Jugendeinrichtung Weiß;Event Space;50.87335375;7.03273954;Weiß, Köln;;Köln
Weißer Hauptstr.;Bus Stop;50.875640000000004;7.0296270000000005;Weiß, Köln;;Köln
Samaji Yogastudio;Yoga Studio;50.873472;7.033805999999999;Weiß, Köln;;Köln
TSV Weiss Fussballplatz;Soccer Field;50.875603288929774;7.024402408250253;Weiß, Köln;;Köln
Capri Eis;Ice Cream Shop;48.81379542225876;9.113972997907565;Weilimdorf, Stuttgart;;Stuttgart
Baran Kebab;Kebab Restaurant;48.81378817447858;9.114371001502457;Weilimdorf, Stuttgart;;Stuttgart
La Pergola;Italian Restaurant;48.81590074266814;9.10841038765201;Weilimdorf, Stuttgart;;Stuttgart
dm-drogerie markt;Drugstore;48.81384662302386;9.111066167353442;Weilimdorf, Stuttgart;;Stuttgart
dm-drogerie markt;Drugstore;48.81400928264141;9.114398327956678;Weilimdorf, Stuttgart;;Stuttgart
REWE;Supermarket;48.814217229750184;9.113276556406165;Weilimdorf, Stuttgart;;Stuttgart
Lidl;Supermarket;48.8142185;9.1167806;Weilimdorf, Stuttgart;;Stuttgart
Löwen-Markt;Shopping Mall;48.81378748492126;9.11290370605738;Weilimdorf, Stuttgart;;Stuttgart
Al Bacio;Ice Cream Shop;48.81379365967121;9.112864437260177;Weilimdorf, Stuttgart;;Stuttgart
Maia;Asian Restaurant;48.813986122124746;9.116205507545986;Weilimdorf, Stuttgart;;Stuttgart
Bulgogi-Haus;Korean Restaurant;50.984592789698404;6.947264671325683;Weidenpesch, Köln;;Köln
Zeus;Greek Restaurant;50.983381027878934;6.947656840561591;Weidenpesch, Köln;;Köln
Eiscafe Forum;Ice Cream Shop;50.98368874598522;6.946707955566452;Weidenpesch, Köln;;Köln
REWE Center;Supermarket;50.98565998908367;6.946070962000704;Weidenpesch, Köln;;Köln
Bäckerei Adolph;Bakery;50.98030970175471;6.948227784323679;Weidenpesch, Köln;;Köln
Galopprennbahn Weidenpesch;Track;50.983521004351175;6.952500846132558;Weidenpesch, Köln;;Köln
Gasthaus Rennbahn;German Restaurant;50.98401815090829;6.9521456424398265;Weidenpesch, Köln;;Köln
H Scheibenstraße;Tram Station;50.98597855363184;6.946071211760494;Weidenpesch, Köln;;Köln
Biergarten Rennbahn;Beer Garden;50.983746682117655;6.9522289637194685;Weidenpesch, Köln;;Köln
Trödel mit Pferderennbahn;Flea Market;50.98436990329674;6.952157020568848;Weidenpesch, Köln;;Köln
Restaurant Hippodrom;Restaurant;50.98407245544656;6.952618978793438;Weidenpesch, Köln;;Köln
Tasso's Grill;Greek Restaurant;50.93836132792496;6.830556285723484;Weiden, Köln;;Köln
FC-FanShop;Sporting Goods Shop;50.93785978225935;6.835595071906055;Weiden, Köln;;Köln
Apple Rhein-Center;Electronics Store;50.937147604115246;6.835335935949871;Weiden, Köln;;Köln
Hollister;Clothing Store;50.93788021705566;6.8353274067584495;Weiden, Köln;;Köln
Food Lounge Rhein-Center;Food Court;50.93721412614057;6.836100786876847;Weiden, Köln;;Köln
Nespresso;Coffee Shop;50.93769;6.835441;Weiden, Köln;;Köln
Starbucks;Coffee Shop;50.937892288012115;6.8354346832958175;Weiden, Köln;;Köln
Rhein-Center;Shopping Mall;50.93757913436775;6.83521270751953;Weiden, Köln;;Köln
H&M;Clothing Store;50.937848209642496;6.834949955640735;Weiden, Köln;;Köln
Manju;Indian Restaurant;50.93721271642685;6.836090265994272;Weiden, Köln;;Köln
Thalia;Bookstore;50.93784;6.83397;Weiden, Köln;;Köln
dm-drogerie markt;Drugstore;50.937295;6.8355690000000005;Weiden, Köln;;Köln
C&A;Clothing Store;50.93798021973608;6.834689347994965;Weiden, Köln;;Köln
Subway;Sandwich Place;50.9369525662942;6.83613847486879;Weiden, Köln;;Köln
ZARA;Clothing Store;50.93767556176657;6.8343576851508345;Weiden, Köln;;Köln
Eiscafé Gelati;Ice Cream Shop;50.93727587331698;6.8360690557874;Weiden, Köln;;Köln
REWE City;Supermarket;50.93798211710953;6.835753113728401;Weiden, Köln;;Köln
Salepepe;Italian Restaurant;50.93717755663037;6.835597709108093;Weiden, Köln;;Köln
Telekom Shop;Mobile Phone Shop;50.93722336536711;6.8358442209014365;Weiden, Köln;;Köln
Kamps;Bakery;50.93688897814221;6.836380840214453;Weiden, Köln;;Köln
H Weiden Römergrab;Tram Station;50.938417727629044;6.828176021141688;Weiden, Köln;;Köln
Just Fit 08 City;Gym / Fitness Center;50.93820296;6.83075544;Weiden, Köln;;Köln
Restaurant Germania;German Restaurant;50.93845669301496;6.832650501199054;Weiden, Köln;;Köln
SATURN;Electronics Store;50.9374641;6.8355872;Weiden, Köln;;Köln
Mango Tree;Asian Restaurant;50.93725953719187;6.836095431973167;Weiden, Köln;;Köln
GameStop;Video Game Store;50.937582611821654;6.834220432833384;Weiden, Köln;;Köln
Pizza e Pasta;Pizza Place;50.93719780563762;6.8361388486844925;Weiden, Köln;;Köln
GALERIA Karstadt Kaufhof;Department Store;50.9369534;6.8361538999999985;Weiden, Köln;;Köln
Eiscafé Kibo;Ice Cream Shop;52.552033978688605;13.341582787328935;Wedding, Berlin;;Berlin
Goethepark;Park;52.54682890763911;13.338853467149125;Wedding, Berlin;;Berlin
Zaunkönig Familiencafé;Café;52.550636;13.348629;Wedding, Berlin;;Berlin
Kaufland;Big Box Store;52.553566955767316;13.345989707322405;Wedding, Berlin;;Berlin
EDEKA Fromm;Supermarket;52.552643599999996;13.3475541;Wedding, Berlin;;Berlin
BSC Rehberge 1945 e.V.;Tennis Court;52.549662170075635;13.338990211486815;Wedding, Berlin;;Berlin
Natürlich Bio - Naturkost & Naturwaren;Organic Grocery;52.55005397025635;13.346085437969395;Wedding, Berlin;;Berlin
Aral;Gas Station;52.546403000000005;13.345187;Wedding, Berlin;;Berlin
Bücher fürs Leben / DHL Paket Shop;Bookstore;52.55178963866186;13.348561751972134;Wedding, Berlin;;Berlin
Paul Gerhardt Apotheke;Pharmacy;52.553996999999995;13.345262;Wedding, Berlin;;Berlin
ALDI NORD;Supermarket;52.55270561849789;13.347823034442998;Wedding, Berlin;;Berlin
H Türkenstraße;Bus Stop;52.55342691262654;13.346908807071836;Wedding, Berlin;;Berlin
Kosmetik & Podologie Angela Bathke;Spa;52.57483728222436;13.518537282943726;Wartenberg, Berlin;;Berlin
ALDI NORD;Supermarket;52.575155780101575;13.518848628221548;Wartenberg, Berlin;;Berlin
Aashirvad;Indian Restaurant;52.57518;13.518382999999998;Wartenberg, Berlin;;Berlin
Sportplatz Wartenberg;Soccer Field;52.577966856117285;13.513484001159668;Wartenberg, Berlin;;Berlin
Zum Weissen Haus;German Restaurant;52.572388914564506;13.520892180976873;Wartenberg, Berlin;;Berlin
India Haus;Indian Restaurant;52.41975198905801;13.159539699554445;Wannsee, Berlin;;Berlin
Halali;Austrian Restaurant;52.419090999999995;13.154881;Wannsee, Berlin;;Berlin
EDEKA Götze;Supermarket;52.418676298514434;13.152959124718466;Wannsee, Berlin;;Berlin
EDEKA Königstraße;Supermarket;52.4199001;13.1600044;Wannsee, Berlin;;Berlin
Getränke Hoffmann;Liquor Store;52.419753435278;13.15816082514857;Wannsee, Berlin;;Berlin
Bäckerei Exner;Bakery;52.419662;13.158804;Wannsee, Berlin;;Berlin
ALDI NORD;Supermarket;52.41917416437164;13.156993055624413;Wannsee, Berlin;;Berlin
Deutsche Post;Post Office;52.41906821761508;13.156943321228027;Wannsee, Berlin;;Berlin
Postbank Finanzcenter;Bank;52.41901587103897;13.156771659851074;Wannsee, Berlin;;Berlin
McDonald's;Fast Food Restaurant;52.420126090598316;13.16184785115952;Wannsee, Berlin;;Berlin
Segelschule Robert Kettler;Harbor / Marina;52.42277167458663;13.163760964496888;Wannsee, Berlin;;Berlin
Segelschule Wannsee;Harbor / Marina;52.42415774806153;13.161853202488967;Wannsee, Berlin;;Berlin
Fook Lam Mun;Chinese Restaurant;52.42050028991331;13.165615038509396;Wannsee, Berlin;;Berlin
Hetzel Hotel;Hotel;48.77312656704857;9.242365129094502;Wangen, Stuttgart;;Stuttgart
Hotel Restaurant Weinstube Ochsen;Hotel;48.77373563907997;9.241405584595237;Wangen, Stuttgart;;Stuttgart
Wangener Besahex;German Restaurant;48.77189628916546;9.244093480215481;Wangen, Stuttgart;;Stuttgart
Hotel Astro;Hotel;48.77331910950795;9.24494996174291;Wangen, Stuttgart;;Stuttgart
Wangener Marktplatz;Plaza;48.77161174136842;9.245074927614583;Wangen, Stuttgart;;Stuttgart
La Rusticana;Italian Restaurant;48.77314674055636;9.245067516394746;Wangen, Stuttgart;;Stuttgart
Eiscafe saturno;Ice Cream Shop;48.771904147656;9.243658048520679;Wangen, Stuttgart;;Stuttgart
Stuttgarter Hof;Restaurant;48.77356759675805;9.24550444747947;Wangen, Stuttgart;;Stuttgart
U Wasenstraße;Metro Station;48.77600611779395;9.243584881145829;Wangen, Stuttgart;;Stuttgart
MeridianSpa;Spa;53.57668821325221;10.080210467790867;Wandsbek, Hamburg;;Hamburg
Cabrio Sport Hamburg;Tennis Court;53.57532266855536;10.075160294245805;Wandsbek, Hamburg;;Hamburg
Q-Pub;Pool Hall;53.57543980785994;10.07400296250139;Wandsbek, Hamburg;;Hamburg
Ni Hao;Chinese Restaurant;53.5751313664022;10.074599715136703;Wandsbek, Hamburg;;Hamburg
Conrad Electronic;Electronics Store;53.57690290867384;10.078633436712812;Wandsbek, Hamburg;;Hamburg
Ristorante Angelo;Italian Restaurant;53.5739107675008;10.072764163768657;Wandsbek, Hamburg;;Hamburg
Eiscafé Jacobs;Ice Cream Shop;53.572202590699504;10.074884838139214;Wandsbek, Hamburg;;Hamburg
jam jam - Running Sushi;Sushi Restaurant;53.57340743301225;10.070281654238523;Wandsbek, Hamburg;;Hamburg
ibis budget Hamburg City Ost;Hotel;53.57542071805356;10.074754708044908;Wandsbek, Hamburg;;Hamburg
El Pulpo;Spanish Restaurant;53.57524145105106;10.074819348806496;Wandsbek, Hamburg;;Hamburg
Sunset;Bar;53.57950926712346;10.076860785484314;Wandsbek, Hamburg;;Hamburg
Schweinske;German Restaurant;53.57341272915424;10.071055332283276;Wandsbek, Hamburg;;Hamburg
Sushi für Hamburg;Sushi Restaurant;53.57939082221272;10.072692994409774;Wandsbek, Hamburg;;Hamburg
Slotcar Racing-Center;Racetrack;53.57560694659243;10.073844587130402;Wandsbek, Hamburg;;Hamburg
Zahara Wandsbek;Hookah Bar;53.57318167344829;10.070588699592486;Wandsbek, Hamburg;;Hamburg
STAPLES;Paper / Office Supplies Store;53.57673524259074;10.082945963086999;Wandsbek, Hamburg;;Hamburg
Byblos;Cocktail Bar;53.57549872767046;10.073868017726417;Wandsbek, Hamburg;;Hamburg
Hot Pot;Soup Place;53.574335999999995;10.073416;Wandsbek, Hamburg;;Hamburg
Tea Time;Bubble Tea Shop;53.57309671785357;10.076247673286844;Wandsbek, Hamburg;;Hamburg
Rossmann;Drugstore;53.57304023695942;10.070078532040608;Wandsbek, Hamburg;;Hamburg
MASTER'S Vertriebs GmbH;Home Service;53.57875152;10.07032452;Wandsbek, Hamburg;;Hamburg
Webers Rippchen-Braterei No.1;BBQ Joint;51.5236567463607;7.5193464070080385;Wambel, Dortmund;;Dortmund
Aral;Gas Station;51.52086077;7.52347177;Wambel, Dortmund;;Dortmund
REWE;Supermarket;51.521087988973704;7.523572908655836;Wambel, Dortmund;;Dortmund
Altes Gasthaus Grube;German Restaurant;51.52109144389056;7.5240462163065125;Wambel, Dortmund;;Dortmund
Casa Mendoza;Mediterranean Restaurant;51.52448112584221;7.5198106673733065;Wambel, Dortmund;;Dortmund
McFIT;Gym / Fitness Center;52.607368799999996;13.3236019;Waidmannslust, Berlin;;Berlin
FitX;Gym / Fitness Center;52.607940323731746;13.325507198157537;Waidmannslust, Berlin;;Berlin
OBI;Hardware Store;52.60648457961556;13.322237133979796;Waidmannslust, Berlin;;Berlin
Rossmann;Drugstore;52.60760196866191;13.32637310028076;Waidmannslust, Berlin;;Berlin
Burger King;Fast Food Restaurant;52.60683967135332;13.324248790740967;Waidmannslust, Berlin;;Berlin
S Waidmannslust;Light Rail Station;52.606687279740726;13.320851329764386;Waidmannslust, Berlin;;Berlin
Tchibo Prozente;Warehouse Store;52.60760126075628;13.323242401832069;Waidmannslust, Berlin;;Berlin
Ristorante San Giorgio;Italian Restaurant;52.60633323603934;13.317238042928754;Waidmannslust, Berlin;;Berlin
DAS FUTTERHAUS - Berlin-Waidmannslust;Pet Store;52.60764757577253;13.324742317199707;Waidmannslust, Berlin;;Berlin
MediMax;Electronics Store;52.607143491198464;13.325320649887422;Waidmannslust, Berlin;;Berlin
EDEKA Aras;Supermarket;52.6074596;13.325573;Waidmannslust, Berlin;;Berlin
NordMeile;Shopping Mall;52.60710189674794;13.325432597152446;Waidmannslust, Berlin;;Berlin
ALDI NORD;Supermarket;51.374897;12.320815;Wahren, Leipzig;;Leipzig
H Wahren;Tram Station;51.374834393713215;12.322776317596436;Wahren, Leipzig;;Leipzig
NORMA;Supermarket;51.37964431515296;12.316423828281925;Wahren, Leipzig;;Leipzig
Zahnräderfabrik Max Müller Leipzig GmbH;Business Service;51.3787291;12.3143181;Wahren, Leipzig;;Leipzig
REWE;Supermarket;50.859228200000004;7.0988809999999996;Wahnheide, Köln;;Köln
Jaumanns Hotel;Hotel;50.859004;7.106660000000001;Wahnheide, Köln;;Köln
Antica Roma;Italian Restaurant;50.85908099885168;7.106031117398954;Wahnheide, Köln;;Köln
Gaststätte Bonerath;German Restaurant;50.860866792424915;7.104527950286865;Wahnheide, Köln;;Köln
Heide-Grill;Fast Food Restaurant;50.85915459560303;7.1030459508203965;Wahnheide, Köln;;Köln
Karsten Hotel;Hotel;50.85842824447617;7.103026970531523;Wahnheide, Köln;;Köln
La Fonte;Italian Restaurant;50.85898580301632;7.10665762424469;Wahnheide, Köln;;Köln
ALDI SÜD;Supermarket;50.85920493341054;7.100022413971715;Wahnheide, Köln;;Köln
Am Flughafen Hotel Cologne;Hotel;50.8590292;7.1075625;Wahnheide, Köln;;Köln
Gyros-Palast;Greek Restaurant;50.85906047710606;7.107827631435673;Wahnheide, Köln;;Köln
Eltzhof das KulturGut;Event Space;50.856528172619534;7.083766815387208;Wahn, Köln;;Köln
EDEKA Hein;Supermarket;50.8563209;7.081450200000001;Wahn, Köln;;Köln
dm-drogerie markt;Drugstore;50.85547857050439;7.081297477559018;Wahn, Köln;;Köln
REWE;Supermarket;50.857861532073905;7.0899238415453265;Wahn, Köln;;Köln
Lidl;Supermarket;50.857775563771185;7.09161391851012;Wahn, Köln;;Köln
Gleis 3/4;Platform;50.85858876458292;7.079495872911607;Wahn, Köln;;Köln
H Wahn S-Bahn;Bus Station;50.85848567964192;7.079470101515982;Wahn, Köln;;Köln
S Porz-Wahn;Light Rail Station;50.85852970630228;7.079447812310809;Wahn, Köln;;Köln
Gleis 1;Platform;50.858554892347314;7.079408320125617;Wahn, Köln;;Köln
Gleis 2;Platform;50.857939;7.079336;Wahn, Köln;;Köln
Parkbad Volksdorf;Pool;53.650463771610724;10.165438242837556;Volksdorf, Hamburg;;Hamburg
Volksdorfer Wochenmarkt;Farmers Market;53.650647862656704;10.162697898040586;Volksdorf, Hamburg;;Hamburg
Museumsdorf Volksdorf;History Museum;53.64966189731897;10.16808271408081;Volksdorf, Hamburg;;Hamburg
De Fries;Fast Food Restaurant;53.64925502043023;10.163672982713944;Volksdorf, Hamburg;;Hamburg
Restaurant Eichenkrug;German Restaurant;53.65055116800355;10.167684587178329;Volksdorf, Hamburg;;Hamburg
Hansebäcker Junge;Bakery;53.64849437819272;10.164159717317046;Volksdorf, Hamburg;;Hamburg
Koralle Lichtspielhaus;Indie Movie Theater;53.651505515529955;10.163304583619972;Volksdorf, Hamburg;;Hamburg
Das Leben isst schön;Café;53.648416000000005;10.168018;Volksdorf, Hamburg;;Hamburg
Block House;Steakhouse;53.647711;10.164606;Volksdorf, Hamburg;;Hamburg
Restaurant Olive;Greek Restaurant;53.647497386667865;10.169062801459043;Volksdorf, Hamburg;;Hamburg
EDEKA;Supermarket;53.647766811180134;10.168769359588623;Volksdorf, Hamburg;;Hamburg
Lidl;Supermarket;53.6518970219179;10.164931872695886;Volksdorf, Hamburg;;Hamburg
Deutsche Bank Filiale;Bank;53.64887052688762;10.16490462892682;Volksdorf, Hamburg;;Hamburg
Hacienda;Brazilian Restaurant;53.648905000000006;10.167603999999999;Volksdorf, Hamburg;;Hamburg
Louisiana;American Restaurant;53.64882255257472;10.16713574843872;Volksdorf, Hamburg;;Hamburg
Shell;Gas Station;53.64774239;10.17075175;Volksdorf, Hamburg;;Hamburg
Thalia Hamburg - Weiße Rose;Toy / Game Store;53.648051;10.164175;Volksdorf, Hamburg;;Hamburg
La Plaza;Tapas Restaurant;53.649369372802646;10.163286924362184;Volksdorf, Hamburg;;Hamburg
Atelier Gourmand;Café;53.64974030501946;10.163324025587832;Volksdorf, Hamburg;;Hamburg
Villaggio;Italian Restaurant;53.649251;10.167701;Volksdorf, Hamburg;;Hamburg
Mega Döner;Doner Restaurant;53.65030085524314;10.162588489271023;Volksdorf, Hamburg;;Hamburg
Brothers Bäckerei & Café;Café;51.345518697502314;12.407019780210485;Volkmarsdorf, Leipzig;;Leipzig
ALDI NORD;Supermarket;51.34490900719921;12.404491043687804;Volkmarsdorf, Leipzig;;Leipzig
Ikram Ocakbasi;Middle Eastern Restaurant;51.34552907026919;12.406288760347092;Volkmarsdorf, Leipzig;;Leipzig
Galerie Hotel Leipziger Hof;Hotel;51.34627756808995;12.40303975112736;Volkmarsdorf, Leipzig;;Leipzig
H Wiebelstraße;Tram Station;51.34041002575121;12.408730531300987;Volkmarsdorf, Leipzig;;Leipzig
H Edlichstraße;Tram Station;51.3429160567022;12.414744048594713;Volkmarsdorf, Leipzig;;Leipzig
Vogelsang Markt;Pedestrian Plaza;50.955585737098104;6.881024960605355;Vogelsang, Köln;;Köln
Zwitscherhäuschen;German Restaurant;50.95570540625225;6.880787157404722;Vogelsang, Köln;;Köln
Constantin Meyer Photographie;Photography Studio;50.95946;6.878439999999955;Vogelsang, Köln;;Köln
mercato olio e vino;Gourmet Shop;50.955469;6.885641000000001;Vogelsang, Köln;;Köln
Niederlassung Betonerhaltung West GmbH;Construction & Landscaping;51.497762;6.985861999999999;Vogelheim, Essen;0.0;Essen
Newzella;Bakery;50.93319573945889;7.021652846460352;Vingst, Köln;;Köln
EDEKA Gans;Supermarket;50.93319698;7.01997304;Vingst, Köln;;Köln
Trattoria Monza;Trattoria/Osteria;51.20981397372139;6.860275268554688;Vennhausen, Düsseldorf;;Düsseldorf
Syrtaki;Greek Restaurant;51.21126857120068;6.86162965271981;Vennhausen, Düsseldorf;;Düsseldorf
Aral;Gas Station;51.21245608;6.85781169;Vennhausen, Düsseldorf;;Düsseldorf
Netto Filiale;Supermarket;51.209894299999995;6.8598661;Vennhausen, Düsseldorf;;Düsseldorf
Veddeler Fischgaststätte;Seafood Restaurant;53.529194900912884;10.020418340032279;Veddel, Hamburg;;Hamburg
Pizzeria Piccola;Italian Restaurant;53.52345898987295;10.015672072559632;Veddel, Hamburg;;Hamburg
PENNY;Supermarket;53.527506467414504;10.021560961648674;Veddel, Hamburg;;Hamburg
Gresham Carat Hotel;Hotel;53.52803505749266;10.021962869083866;Veddel, Hamburg;;Hamburg
IBA Dock;Café;53.52244100236682;10.019579467358684;Veddel, Hamburg;;Hamburg
Salli's Veddel;Food & Drink Shop;53.52285000078689;10.014632391150052;Veddel, Hamburg;;Hamburg
Kentucky Fried Chicken;Fried Chicken Joint;48.732763;9.088966000000001;Vaihingen, Stuttgart;;Stuttgart
SUBWAY;Sandwich Place;48.737268167053365;9.084332171281924;Vaihingen, Stuttgart;;Stuttgart
Gärtnerei Elsäßer;Flower Shop;48.73460747901857;9.08857128467332;Vaihingen, Stuttgart;;Stuttgart
Hondler Vaihingen;German Restaurant;48.733523999999996;9.085582;Vaihingen, Stuttgart;;Stuttgart
VW Zentrum Stuttgart;Auto Dealership;48.73158044736;9.09254075111034;Vaihingen, Stuttgart;;Stuttgart
Altes Fischerhaus;Restaurant;51.150189223854866;6.860878272430193;Urdenbach, Düsseldorf;;Düsseldorf
Extratour zum alten Rhein;German Restaurant;51.14507462421778;6.8644705218826285;Urdenbach, Düsseldorf;;Düsseldorf
Grillstube Seydel;Diner;51.1493611202697;6.867651506164918;Urdenbach, Düsseldorf;;Düsseldorf
EDEKA Politt;Supermarket;51.1490492;6.867642599999999;Urdenbach, Düsseldorf;;Düsseldorf
Zur alten Apotheke;Pub;51.146751963978794;6.868386268615723;Urdenbach, Düsseldorf;;Düsseldorf
Zum Byzanz;Greek Restaurant;50.880856864536234;7.082714244968102;Urbach, Köln;;Köln
Kaiser Restaurant;Turkish Restaurant;50.88123113503796;7.075168490409851;Urbach, Köln;;Köln
Hit;Supermarket;50.88156140010572;7.077544834834553;Urbach, Köln;;Köln
PENNY;Miscellaneous Shop;50.88171165742697;7.081697773022598;Urbach, Köln;;Köln
dm-drogerie markt;Drugstore;50.88178684123051;7.080738013266032;Urbach, Köln;;Köln
Nazar;Snack Place;50.881496281107644;7.0826044498762695;Urbach, Köln;;Köln
Domino's;Pizza Place;50.8815315487321;7.08317568845814;Urbach, Köln;;Köln
Schlossplatz;Plaza;48.77854905890561;9.17985498905182;Untertürkheim, Stuttgart;;Stuttgart
Altes Schloss;History Museum;48.7771680490656;9.179526070063034;Untertürkheim, Stuttgart;;Stuttgart
Landesmuseum Württemberg;Museum;48.77714306058692;9.179541602158851;Untertürkheim, Stuttgart;;Stuttgart
Die Bierothek;Beer Store;48.77919805797462;9.178369045257568;Untertürkheim, Stuttgart;;Stuttgart
Oberer Schlossgarten;Park;48.78000249122962;9.182439617316208;Untertürkheim, Stuttgart;;Stuttgart
Old Bridge;Ice Cream Shop;48.78000725303375;9.177899287099294;Untertürkheim, Stuttgart;;Stuttgart
Königstraße;Pedestrian Plaza;48.77819555801041;9.17809009552002;Untertürkheim, Stuttgart;;Stuttgart
Markthalle;Market;48.77614470091334;9.179335327968657;Untertürkheim, Stuttgart;;Stuttgart
Feinkost Böhm;Gourmet Shop;48.778077453736884;9.176316993145603;Untertürkheim, Stuttgart;;Stuttgart
Schillerplatz;Plaza;48.77717035374872;9.178736615471523;Untertürkheim, Stuttgart;;Stuttgart
Kunstmuseum Stuttgart;Art Museum;48.778150182446716;9.1779244627344;Untertürkheim, Stuttgart;;Stuttgart
Kleiner Schlossplatz;Plaza;48.778393791859294;9.17685979799192;Untertürkheim, Stuttgart;;Stuttgart
Oggi Tavola Mediterranea;Italian Restaurant;48.77883534646972;9.176265592920815;Untertürkheim, Stuttgart;;Stuttgart
Karlsplatz;Park;48.77659076360696;9.180966784404694;Untertürkheim, Stuttgart;;Stuttgart
Waranga;Bar;48.77855215747992;9.177410799660745;Untertürkheim, Stuttgart;;Stuttgart
Carls Brauhaus;Brewery;48.77905275696649;9.179677043794742;Untertürkheim, Stuttgart;;Stuttgart
Metropol Kino;Movie Theater;48.78021027370282;9.177686106586961;Untertürkheim, Stuttgart;;Stuttgart
Neues Schloss;Palace;48.77796931613101;9.181898832321165;Untertürkheim, Stuttgart;;Stuttgart
Buchhaus Wittwer;Bookstore;48.777862895929296;9.177516533822256;Untertürkheim, Stuttgart;;Stuttgart
Brauhaus Schönbuch;German Restaurant;48.780341350383885;9.178252684512566;Untertürkheim, Stuttgart;;Stuttgart
Palast der Republik;Beer Garden;48.780572410026615;9.177211633995974;Untertürkheim, Stuttgart;;Stuttgart
Coffreez;Coffee Shop;48.77979453223544;9.179473874412949;Untertürkheim, Stuttgart;;Stuttgart
Eduard's;Cocktail Bar;48.77553673369719;9.179934613561988;Untertürkheim, Stuttgart;;Stuttgart
Heart & Sole;Sporting Goods Shop;48.77872979041892;9.177254663700829;Untertürkheim, Stuttgart;;Stuttgart
Cube;Restaurant;48.778288796596975;9.177706555133373;Untertürkheim, Stuttgart;;Stuttgart
Sansibar;German Restaurant;48.77533050525256;9.18048091545826;Untertürkheim, Stuttgart;;Stuttgart
Staatsoper Stuttgart;Opera House;48.77936917139513;9.18433427810669;Untertürkheim, Stuttgart;;Stuttgart
Weinhandlung & Weinbar Kreis;Wine Shop;48.77675812787134;9.178656157759413;Untertürkheim, Stuttgart;;Stuttgart
San's Bistro & Weinbar;Sandwich Place;48.778766606073475;9.176832365330077;Untertürkheim, Stuttgart;;Stuttgart
Gloria Kino;Movie Theater;48.780269999444506;9.178807590031012;Untertürkheim, Stuttgart;;Stuttgart
Marktplatz;Plaza;48.77527972503773;9.178327885301352;Untertürkheim, Stuttgart;;Stuttgart
Sushi-Ya;Sushi Restaurant;48.77746052873597;9.175435468797998;Untertürkheim, Stuttgart;;Stuttgart
Cavos Taverna Stuttgart;Taverna;48.78149040209631;9.178606604786294;Untertürkheim, Stuttgart;;Stuttgart
bungalow;Men's Store;48.776174621819784;9.177969551802711;Untertürkheim, Stuttgart;;Stuttgart
Go Asia Asien Supermarkt;Supermarket;48.78153;9.181855;Untertürkheim, Stuttgart;;Stuttgart
California Bounge;Lounge;48.7800511927073;9.175979058815878;Untertürkheim, Stuttgart;;Stuttgart
Breuninger;Department Store;48.77493616246726;9.179795980453493;Untertürkheim, Stuttgart;;Stuttgart
Alte Kanzlei;German Restaurant;48.77763953488208;9.178852050050422;Untertürkheim, Stuttgart;;Stuttgart
Holanka Bar;Café;48.77612147606333;9.178086826413422;Untertürkheim, Stuttgart;;Stuttgart
enso Sushi & Grill;Japanese Restaurant;48.77538648763747;9.182065444129725;Untertürkheim, Stuttgart;;Stuttgart
Sky Beach Stuttgart;Beach Bar;48.78202600729646;9.180950122707387;Untertürkheim, Stuttgart;;Stuttgart
Motel One Stuttgart-Hauptbahnhof;Hotel;48.78207191433852;9.1790330349188;Untertürkheim, Stuttgart;;Stuttgart
Old Bridge;Ice Cream Shop;48.77417318950248;9.179273717618713;Untertürkheim, Stuttgart;;Stuttgart
Louis Vuitton;Boutique;48.7756571;9.1797474;Untertürkheim, Stuttgart;;Stuttgart
Zara;Clothing Store;48.7810135333768;9.180603167252713;Untertürkheim, Stuttgart;;Stuttgart
Thai-Restaurant Tiffany;Thai Restaurant;48.77585918362092;9.176997893598452;Untertürkheim, Stuttgart;;Stuttgart
Gatto Verde;Italian Restaurant;51.276977;6.788444999999999;Unterrath, Düsseldorf;;Düsseldorf
Avidon Art & Design Hotel;Hotel;51.27532459768281;6.78655944389746;Unterrath, Düsseldorf;;Düsseldorf
Gaststätte Hoferhof;Pub;51.275125496460646;6.786847114562987;Unterrath, Düsseldorf;;Düsseldorf
Restaurant Platia;Greek Restaurant;51.27543582688362;6.790698161381055;Unterrath, Düsseldorf;;Düsseldorf
H Am Röttchen;Bus Stop;51.27368943269529;6.781715933412522;Unterrath, Düsseldorf;;Düsseldorf
S Düsseldorf-Unterrath;Light Rail Station;51.276919179424276;6.788693815469742;Unterrath, Düsseldorf;;Düsseldorf
Parkside Hotel;Hotel;50.10744904957446;8.536176220234754;Unterliederbach, Frankfurt;;Frankfurt
EDEKA City-Supermarkt Lich;Supermarket;50.10956873;8.5364394;Unterliederbach, Frankfurt;;Frankfurt
Unterliederbach Bf;Platform;50.107682149555686;8.528237103646712;Unterliederbach, Frankfurt;;Frankfurt
Asiatischer Imbiss;Asian Restaurant;50.110793;8.538207;Unterliederbach, Frankfurt;;Frankfurt
Intersport Voswinkel;Sporting Goods Shop;50.11031090621072;8.525815105104492;Unterliederbach, Frankfurt;;Frankfurt
Giesinger Garten;German Restaurant;48.116025631568796;11.568317575996849;Untergiesing-Harlaching, München;;München
Lucullus;Greek Restaurant;48.117473782689636;11.570439826602463;Untergiesing-Harlaching, München;;München
Kebab Haus;Kebab Restaurant;48.11594216367028;11.573065206277766;Untergiesing-Harlaching, München;;München
Patisserie Lehmann;Cupcake Shop;48.11557263795641;11.572897836771212;Untergiesing-Harlaching, München;;München
Ammos;Taverna;48.1137867393328;11.57183028656776;Untergiesing-Harlaching, München;;München
Solo Pizzeria Italia;Pizza Place;48.11489;11.57576;Untergiesing-Harlaching, München;;München
Giesinger Bräu;Brewery;48.11554243106117;11.576862211887484;Untergiesing-Harlaching, München;;München
Hamam Anatolia;Spa;48.11286647812093;11.57588623219334;Untergiesing-Harlaching, München;;München
dm-drogerie markt;Drugstore;48.1167222;11.571522300000002;Untergiesing-Harlaching, München;;München
Body Up;Gym;48.11627462165476;11.573013204563372;Untergiesing-Harlaching, München;;München
Fiedler & Fuchs;German Restaurant;48.11638905150186;11.57436842113554;Untergiesing-Harlaching, München;;München
Va Pensiero;Italian Restaurant;48.115017384964226;11.570125287184773;Untergiesing-Harlaching, München;;München
Likavitos;Taverna;48.11652989203606;11.570887539340148;Untergiesing-Harlaching, München;;München
ALDI SÜD;Supermarket;48.116580581377505;11.572916976686427;Untergiesing-Harlaching, München;;München
Hans-Mielich-Platz;Plaza;48.116436;11.570517;Untergiesing-Harlaching, München;;München
Van Hoa;Vietnamese Restaurant;48.11457446619095;11.57660798649212;Untergiesing-Harlaching, München;;München
Café Wimmer;Café;48.113798139344;11.571930310636166;Untergiesing-Harlaching, München;;München
Mama Pizza;Pizza Place;48.115556;11.571528;Untergiesing-Harlaching, München;;München
Gaststätte Hans Mielich;German Restaurant;48.113827464881716;11.569779997275974;Untergiesing-Harlaching, München;;München
Post Café;Convenience Store;48.11473838413775;11.570127990659316;Untergiesing-Harlaching, München;;München
Jakob-Gelb-Platz;Plaza;48.113536974786705;11.572438211454434;Untergiesing-Harlaching, München;;München
Giesinger Frischemarkt;Supermarket;48.11259275;11.57119554;Untergiesing-Harlaching, München;;München
Sparkasse;Bank;48.11183328585838;11.57024065230006;Untergiesing-Harlaching, München;;München
Isarstrand;Beach;48.118113691475884;11.570015118937187;Untergiesing-Harlaching, München;;München
Sportgaststätte  Agilolfingerplatz;Soccer Field;48.114763806697255;11.565250260807094;Untergiesing-Harlaching, München;;München
Bezirkssportanlage Agilolfingerstraße;Soccer Field;48.115893039152574;11.565363193543625;Untergiesing-Harlaching, München;;München
SoulPlus;Gym;48.11148319;11.57126796;Untergiesing-Harlaching, München;;München
Giesinger Stehausschank;Music Venue;48.115829999999995;11.576709;Untergiesing-Harlaching, München;;München
Entenweiher;Lake;48.11527520290372;11.563507318496704;Untergiesing-Harlaching, München;;München
Aloha Poke;Poke Place;51.211205;6.7664413;Unterbilk, Düsseldorf;;Düsseldorf
REWE;Supermarket;51.20442766102982;6.89470307534873;Unterbach, Düsseldorf;;Düsseldorf
Nostalgia zur Delle;Polish Restaurant;51.203666;6.899448;Unterbach, Düsseldorf;;Düsseldorf
Vereinshaus, Unterbach;Gastropub;51.202967317013474;6.900875594377934;Unterbach, Düsseldorf;;Düsseldorf
Pizzeria Trattoria La Rucola;Trattoria/Osteria;51.20449109812387;6.8950273636631;Unterbach, Düsseldorf;;Düsseldorf
Breidenplatz;Plaza;51.20451247746499;6.8947661939972935;Unterbach, Düsseldorf;;Düsseldorf
Caipi Colada;Cocktail Bar;53.572574862334655;10.016085740857179;Uhlenhorst, Hamburg;;Hamburg
Aspria;Gym / Fitness Center;53.57118949544174;10.017295938304997;Uhlenhorst, Hamburg;;Hamburg
Alsterperle;Café;53.567749;10.015511;Uhlenhorst, Hamburg;;Hamburg
No Ne Asia Imbiss;Asian Restaurant;53.571268154466026;10.016307753870262;Uhlenhorst, Hamburg;;Hamburg
FARDI - Syrisches Restaurant;Middle Eastern Restaurant;53.57487056717486;10.014998396067877;Uhlenhorst, Hamburg;;Hamburg
Budnikowsky;Drugstore;53.57239908096006;10.015756461230822;Uhlenhorst, Hamburg;;Hamburg
Akari;Japanese Restaurant;53.56875161752354;10.017955727182663;Uhlenhorst, Hamburg;;Hamburg
Emmas;Cupcake Shop;53.57376655136403;10.015362150155328;Uhlenhorst, Hamburg;;Hamburg
Alsterpark;Park;53.56886720723957;10.013555288314821;Uhlenhorst, Hamburg;;Hamburg
Schöne Aussicht;Scenic Lookout;53.56977830552557;10.009961128234863;Uhlenhorst, Hamburg;;Hamburg
Ristorante Farinelli Da Franco;Italian Restaurant;53.57418599302226;10.015057581182266;Uhlenhorst, Hamburg;;Hamburg
San Michele;Italian Restaurant;53.57314649549393;10.018611037489356;Uhlenhorst, Hamburg;;Hamburg
Casa Nova;Pizza Place;53.570228411270065;10.01708020624333;Uhlenhorst, Hamburg;;Hamburg
Cafe Hansa-Steg;Café;53.569832406774985;10.009584430625203;Uhlenhorst, Hamburg;;Hamburg
EDEKA;Supermarket;53.56895010529493;10.017910420401595;Uhlenhorst, Hamburg;;Hamburg
Boulevard Hotel;Hotel;53.575034258510506;10.015057325363157;Uhlenhorst, Hamburg;;Hamburg
Anleger Uhlenhorster Fährhaus;Pier;53.57334814205759;10.007449883884204;Uhlenhorst, Hamburg;;Hamburg
guter blick;River;53.5744188365554;10.007865132331775;Uhlenhorst, Hamburg;;Hamburg
Norddeutscher Regattaverein;Harbor / Marina;53.57437104357483;10.00749682819276;Uhlenhorst, Hamburg;;Hamburg
Weinbaumuseum Uhlbach;History Museum;48.77647007812399;9.278925818085565;Uhlbach, Stuttgart;;Stuttgart
Uhlbach;Vineyard;48.77309771316636;9.280077690708724;Uhlbach, Stuttgart;;Stuttgart
Hotel Garni;Hotel;48.774964000000004;9.281407000000002;Uhlbach, Stuttgart;;Stuttgart
Weingut Currle (Besenwirtschaft);German Pop-Up Restaurant;48.77486733353136;9.284798599924152;Uhlbach, Stuttgart;;Stuttgart
Weinstube Löwen;German Restaurant;48.77684989999999;9.2788637;Uhlbach, Stuttgart;;Stuttgart
body + soul Center Trudering;Gym / Fitness Center;48.12243724042513;11.662373344523187;Trudering-Riem, München;;München
Leto Motel;Motel;48.122214449252866;11.661578991377993;Trudering-Riem, München;;München
Müller Bäckerei;Bakery;48.1257917635959;11.663456271898124;Trudering-Riem, München;;München
dm-drogerie markt;Drugstore;48.1223517;11.6612886;Trudering-Riem, München;;München
HIT;Supermarket;48.12473447855568;11.664641177009573;Trudering-Riem, München;;München
SUBWAY;Sandwich Place;48.121602222945995;11.662820224951579;Trudering-Riem, München;;München
Wanderweg zur Scandio;Trail;48.1276804603349;11.663284645836574;Trudering-Riem, München;;München
Traine Coffe;Café;48.125547680245035;11.663593687373414;Trudering-Riem, München;;München
S+U Trudering;Light Rail Station;48.12554479638421;11.663594565728598;Trudering-Riem, München;;München
Miyako;Asian Restaurant;48.12653314;11.65827292;Trudering-Riem, München;;München
denn's Biomarkt;Organic Grocery;48.122400577734105;11.66195039921814;Trudering-Riem, München;;München
FIT STAR Fitnessstudio München-Trudering;Gym / Fitness Center;48.1218981;11.6620671;Trudering-Riem, München;;München
Tiberio;Italian Restaurant;48.12168205035146;11.662770509719849;Trudering-Riem, München;;München
Poco Domäne;Furniture / Home Store;48.127607943821786;11.659779123683471;Trudering-Riem, München;;München
Bahnhof Hamburg-Tonndorf;Train Station;53.586528597916356;10.123212502349476;Tonndorf, Hamburg;;Hamburg
A.T.U;Automotive Shop;53.58470660777544;10.118983049545436;Tonndorf, Hamburg;;Hamburg
Mix Markt;Grocery Store;53.585182999999994;10.12233;Tonndorf, Hamburg;;Hamburg
Katy;Café;53.585786473226904;10.123951881387505;Tonndorf, Hamburg;;Hamburg
Fischladen Tonndorf;Seafood Restaurant;53.585809;10.12397;Tonndorf, Hamburg;;Hamburg
Strandbad Ostende;Beach;53.591389498656724;10.11788307353464;Tonndorf, Hamburg;;Hamburg
H Studio Hamburg;Bus Stop;53.586161980759755;10.124974250793457;Tonndorf, Hamburg;;Hamburg
Rosengarten;Garden;52.51397228556314;13.35688796731381;Tiergarten, Berlin;;Berlin
Luiseninsel;Sculpture Garden;52.51091480493818;13.364304521528554;Tiergarten, Berlin;;Berlin
Gedenkstätte Deutscher Widerstand;Memorial Site;52.507634312116956;13.363169236520958;Tiergarten, Berlin;;Berlin
Harry's New York Bar;Hotel Bar;52.50577327676405;13.354751696063293;Tiergarten, Berlin;;Berlin
Kantine im Felleshus;Scandinavian Restaurant;52.50855527666073;13.350813388824465;Tiergarten, Berlin;;Berlin
Maritim Hotel Berlin;Hotel;52.507586200000006;13.3635465;Tiergarten, Berlin;;Berlin
Ellipse Lounge;Lounge;52.505763;13.354719000000001;Tiergarten, Berlin;;Berlin
Sheraton Club Lounge;Lounge;52.505758532442606;13.354830514739534;Tiergarten, Berlin;;Berlin
Café im Bauhaus-Archiv;Café;52.506372668573704;13.353988125172107;Tiergarten, Berlin;;Berlin
Eventlocation Alte Pumpe;German Restaurant;52.505480787633296;13.358202960121718;Tiergarten, Berlin;;Berlin
Richard-Wagner-Denkmal;Outdoor Sculpture;52.51001711782703;13.362063486461674;Tiergarten, Berlin;;Berlin
Regenbogenwiese Tiergarten;Park;52.51209234371832;13.351293123225858;Tiergarten, Berlin;;Berlin
Lidl;Supermarket;51.378804671830814;12.430841170089481;Thekla, Leipzig;;Leipzig
Bürkle Elektronik Service GmbH;Other Repair Shop;51.38208650000001;12.434000299999981;Thekla, Leipzig;;Leipzig
DEVK;Insurance Office;51.382127000000004;12.434853;Thekla, Leipzig;;Leipzig
Zum Mühlengrund;Gastropub;51.382934000000006;12.439454;Thekla, Leipzig;;Leipzig
Kyprios;Greek Restaurant;48.1019832372013;11.543869711215393;Thalkirchen-Obersendling, München;;München
Pogner's Restaurant & Kegelbahn;German Restaurant;48.104710410220854;11.545836637501914;Thalkirchen-Obersendling, München;;München
Kiosk 1917;Convenience Store;48.101044635766286;11.547463343556595;Thalkirchen-Obersendling, München;;München
GELATOBI;Ice Cream Shop;48.10082976416337;11.546576889666527;Thalkirchen-Obersendling, München;;München
HI Munich Park Hostel - DJH Jugendherberge München Park;Hostel;48.099476231377075;11.543361655035298;Thalkirchen-Obersendling, München;;München
Kletter- und Boulderzentrum München;Climbing Gym;48.106761053521055;11.545561880353091;Thalkirchen-Obersendling, München;;München
Mangostin Asia;Asian Restaurant;48.10023167599754;11.545920964682608;Thalkirchen-Obersendling, München;;München
Grillplatz an der Isar (Thalkirchen, Westufer gegenüber Tierpark);BBQ Joint;48.100049974297846;11.550424524780036;Thalkirchen-Obersendling, München;;München
Cafe am Tierpark;Italian Restaurant;48.100435674582;11.544770239704732;Thalkirchen-Obersendling, München;;München
Shan;Indian Restaurant;48.10398329931054;11.54256546831058;Thalkirchen-Obersendling, München;;München
Das Bootshaus;German Restaurant;48.0986968819247;11.547256896115133;Thalkirchen-Obersendling, München;;München
Backstube Wünsche;Bakery;48.10058556343667;11.546989292373164;Thalkirchen-Obersendling, München;;München
EDEKA;Supermarket;48.10046639999999;11.546664;Thalkirchen-Obersendling, München;;München
Alter Wirt;German Restaurant;48.100508886663526;11.544953688342893;Thalkirchen-Obersendling, München;;München
Rizzo;Italian Restaurant;48.102839017973615;11.547141218258947;Thalkirchen-Obersendling, München;;München
Vinum Merum;Dessert Shop;48.10027914456943;11.543618364294984;Thalkirchen-Obersendling, München;;München
Gästehaus Am RPTC Hotel;Hotel;48.10515462647477;11.549910846772804;Thalkirchen-Obersendling, München;;München
Thalkirchentrails;Trail;48.10080257803885;11.550334769257109;Thalkirchen-Obersendling, München;;München
Susi & Günther's Hexenhäusel;Convenience Store;48.102532000000004;11.551853;Thalkirchen-Obersendling, München;;München
Kanuzentrum (MTV);River;48.098804972291184;11.54787540435791;Thalkirchen-Obersendling, München;;München
Spielplatz Maria-Einsiedel-Straße;Playground;48.098484609958476;11.546234795628687;Thalkirchen-Obersendling, München;;München
Alter Park;Park;52.46287074203468;13.382309408058473;Tempelhof, Berlin;;Berlin
City Chicken;Fried Chicken Joint;52.46478335318882;13.385706167873973;Tempelhof, Berlin;;Berlin
Franckepark;Park;52.4612132016372;13.388428688049315;Tempelhof, Berlin;;Berlin
Nuova Mirabella;Italian Restaurant;52.4656440564333;13.38403409683398;Tempelhof, Berlin;;Berlin
Müllerskind;Café;52.462680782026176;13.381306691069785;Tempelhof, Berlin;;Berlin
RISA Chicken;Fried Chicken Joint;52.466194911143816;13.38532605664186;Tempelhof, Berlin;;Berlin
Bosepark;Park;52.462958329071206;13.379771795281744;Tempelhof, Berlin;;Berlin
Thürmann Bäckerei & Konditorei;Bakery;52.46076866305522;13.385080280744855;Tempelhof, Berlin;;Berlin
EGE Gemüsekebap;Doner Restaurant;52.45921800000001;13.384773999999998;Tempelhof, Berlin;;Berlin
Café Klatsch;Café;52.46585700255896;13.38076329559754;Tempelhof, Berlin;;Berlin
Bambusstäbchen;Vietnamese Restaurant;52.46664276531108;13.385444816675534;Tempelhof, Berlin;;Berlin
dm-drogerie markt;Drugstore;52.459654927667806;13.384770689924677;Tempelhof, Berlin;;Berlin
Balli Döner;Doner Restaurant;52.465982315211605;13.385411098485935;Tempelhof, Berlin;;Berlin
Amera;Italian Restaurant;52.467169988816394;13.382751642683369;Tempelhof, Berlin;;Berlin
Rossmann;Drugstore;52.45956108078195;13.384524458560133;Tempelhof, Berlin;;Berlin
EDEKA;Supermarket;52.465500693479136;13.383998450074037;Tempelhof, Berlin;;Berlin
Hotel Alt-Tempelhof;Hotel;52.464013543046704;13.384933899156918;Tempelhof, Berlin;;Berlin
Pausini;Coffee Shop;52.459449320605344;13.383953043052635;Tempelhof, Berlin;;Berlin
M & M Back;Bakery;52.45964973053189;13.384572006259795;Tempelhof, Berlin;;Berlin
Galeria Karstadt Kaufhof;Department Store;52.459764171523965;13.384770315342202;Tempelhof, Berlin;;Berlin
Creme de la Creme - Florida Eis;Ice Cream Shop;52.588646;13.278310999999999;Tegel, Berlin;;Berlin
Cafe Wetterstein;Café;52.589048999999996;13.279866;Tegel, Berlin;;Berlin
Greenwichpromenade;Waterfront;52.588045173626746;13.273844718933105;Tegel, Berlin;;Berlin
Bergmann Pizza;Pizza Place;52.589363391720504;13.281678640087993;Tegel, Berlin;;Berlin
Rüan Thai Restaurant;Thai Restaurant;52.586872209959296;13.283095414756493;Tegel, Berlin;;Berlin
Hax'nhaus;German Restaurant;52.58979;13.282209900000002;Tegel, Berlin;;Berlin
Donna Francesca;Restaurant;52.588995;13.280823000000002;Tegel, Berlin;;Berlin
Fisherman's;Seafood Restaurant;52.585218999999995;13.276782;Tegel, Berlin;;Berlin
Aarju;Indian Restaurant;52.586675849929144;13.282668697067221;Tegel, Berlin;;Berlin
Blaue Lagune;Mediterranean Restaurant;52.588506110593435;13.278330353766886;Tegel, Berlin;;Berlin
Florida Eiscafé;Ice Cream Shop;52.58938369840054;13.281575811432175;Tegel, Berlin;;Berlin
SeeGarten;Beer Garden;52.5849619499386;13.275872468948364;Tegel, Berlin;;Berlin
DADU;Japanese Restaurant;52.58940094117387;13.282143473625181;Tegel, Berlin;;Berlin
Pianoforte;Italian Restaurant;52.587143000000005;13.285779000000002;Tegel, Berlin;;Berlin
dm-drogerie markt;Drugstore;52.589731900000004;13.2849612;Tegel, Berlin;;Berlin
Darjiling;Indian Restaurant;52.588685713640565;13.279117108639722;Tegel, Berlin;;Berlin
Falafel Moudi;Falafel Restaurant;52.58778168799675;13.285322216805165;Tegel, Berlin;;Berlin
Konditorei Röttgen;Café;52.5893265063899;13.283876824507264;Tegel, Berlin;;Berlin
Mal Sehn;Bar;52.58936803248678;13.280969538041386;Tegel, Berlin;;Berlin
Laventes Grill;Restaurant;52.586685037326745;13.282781830684184;Tegel, Berlin;;Berlin
Tegeler See Terrassen;Lounge;52.58896335657332;13.274575629718314;Tegel, Berlin;;Berlin
Rossmann;Drugstore;52.590756666778205;13.2831573486328;Tegel, Berlin;;Berlin
Restaurant Weil;Restaurant;52.58947279325261;13.281840399280368;Tegel, Berlin;;Berlin
C&A;Clothing Store;52.590045588446344;13.282905232478036;Tegel, Berlin;;Berlin
Pavillon am See;Café;52.58855410602874;13.273017453454182;Tegel, Berlin;;Berlin
Brasserie Alt-Tegel;Brasserie;52.589055485155974;13.280432224273682;Tegel, Berlin;;Berlin
Edeka Tegel;Supermarket;52.586931386608725;13.282974826629788;Tegel, Berlin;;Berlin
Curry 27;Snack Place;52.590257913145116;13.282802286347186;Tegel, Berlin;;Berlin
H U Alt-Tegel;Bus Stop;52.590374;13.283281;Tegel, Berlin;;Berlin
Gärtnerei & Hofladen Stender;Café;53.49433115202405;10.084525971015708;Tatenberg, Hamburg;;Hamburg
Tatenberger Fährhaus;German Restaurant;53.495003000000004;10.083554;Tatenberg, Hamburg;;Hamburg
BBQ-Donut Hamburg Bootsvermietung S. Gebauer;Boat or Ferry;53.4973;10.080889999999954;Tatenberg, Hamburg;;Hamburg
Sportboothafen Möller;Harbor / Marina;53.4972067262139;10.081605126417454;Tatenberg, Hamburg;;Hamburg
Hamburger Yacht Club;Club House;53.493830032582395;10.086299880819588;Tatenberg, Hamburg;;Hamburg
EDEKA Kipping;Supermarket;50.86471402;7.00499628;Sürth, Köln;;Köln
Eiscafé Marano;Ice Cream Shop;50.862500996414575;7.008033548173352;Sürth, Köln;;Köln
Falderhof Restaurant & Hotel;German Restaurant;50.86285186402339;7.006704843787456;Sürth, Köln;;Köln
Gaststätte Zur Krone;German Restaurant;50.862578000000006;7.008534;Sürth, Köln;;Köln
La Modicana Pizzeria Restaurante;Italian Restaurant;50.86276029438827;7.008644454567027;Sürth, Köln;;Köln
Pizzeria Sorriso;Pizza Place;50.862245137737816;7.007382172653417;Sürth, Köln;;Köln
Theo's Grill;Greek Restaurant;50.861870738551396;7.007060646888612;Sürth, Köln;;Köln
Bäckerei Schneider;Bakery;50.86478192279925;7.0045322152797445;Sürth, Köln;;Köln
Netto Marken-Discount;Supermarket;50.85947693;7.00390417;Sürth, Köln;;Köln
H Sürth;Tram Station;50.864268940791995;7.003568637017709;Sürth, Köln;;Köln
Keiserlich;Ice Cream Shop;50.91847532292232;6.925479179110984;Sülz, Köln;;Köln
Chang-Thai;Thai Restaurant;50.919031438050496;6.926123302461226;Sülz, Köln;;Köln
Melange Orange;Café;50.91681506665218;6.925757003876632;Sülz, Köln;;Köln
Ha-Long-Bucht;Vietnamese Restaurant;50.91794291946909;6.923958496156447;Sülz, Köln;;Köln
Palanta;Restaurant;50.92020451140792;6.9204535824609055;Sülz, Köln;;Köln
Heilandt Sülz;Café;50.91592779414488;6.927289177588785;Sülz, Köln;;Köln
Grilleta Salamis;Greek Restaurant;50.916009671004076;6.922668878227032;Sülz, Köln;;Köln
Balthasar;Modern European Restaurant;50.91936427202064;6.91940824701033;Sülz, Köln;;Köln
Ökmen Kebap;Turkish Restaurant;50.92044838473196;6.919711035080142;Sülz, Köln;;Köln
Sakura;Sushi Restaurant;50.917731885936135;6.924539801696374;Sülz, Köln;;Köln
Brasserie Marie;French Restaurant;50.923199;6.9240699999999995;Sülz, Köln;;Köln
Café Rubi;Café;50.920252119212925;6.927358419694084;Sülz, Köln;;Köln
Wo ist Tom?;Café;50.921551;6.920489999999999;Sülz, Köln;;Köln
Café Goldjunge;Café;50.922662;6.922822999999999;Sülz, Köln;;Köln
Jules Coffee;Café;50.917049824089844;6.923740463120472;Sülz, Köln;;Köln
Haus Unkelbach;Brewery;50.91528291118365;6.926614806699552;Sülz, Köln;;Köln
Fitness First;Gym / Fitness Center;50.91699063956656;6.9292764365673065;Sülz, Köln;;Köln
E Bom;Café;50.918406798485535;6.925373051051133;Sülz, Köln;;Köln
Fellini Ristorante;Italian Restaurant;50.920958598595476;6.917946489945956;Sülz, Köln;;Köln
dm-drogerie markt;Drugstore;50.916324000832475;6.926870232559849;Sülz, Köln;;Köln
My Thai;Thai Restaurant;50.917545988715105;6.924301667179988;Sülz, Köln;;Köln
Sölzer Klaaf;Gastropub;50.915745755022954;6.9250128959706565;Sülz, Köln;;Köln
Berrenrather;Pub;50.916499481607644;6.9230525751262375;Sülz, Köln;;Köln
Haus Demmer;German Restaurant;50.92317149673294;6.924337830964192;Sülz, Köln;;Köln
Supasalad;Salad Place;50.91555405431571;6.9278488885237275;Sülz, Köln;;Köln
Gasthaus Scherz;Austrian Restaurant;50.915503;6.926964;Sülz, Köln;;Köln
Lidl;Supermarket;50.9219946;6.9214285;Sülz, Köln;;Köln
Eckstein;Restaurant;50.91537931655765;6.927417481381303;Sülz, Köln;;Köln
Schmitz & Nittenwilm;Bakery;50.919311;6.9197940000000004;Sülz, Köln;;Köln
Schmitz & Nittenwilm;Bakery;50.915265691597575;6.922005145235643;Sülz, Köln;;Köln
Lieblings;Café;50.922313;6.922319;Sülz, Köln;;Köln
Merzenich;Bakery;50.915741;6.927116000000001;Sülz, Köln;;Köln
Saigon Pho;Vietnamese Restaurant;50.915717652045956;6.922364902106985;Sülz, Köln;;Köln
Bellavista Trattoria;Trattoria/Osteria;50.92122836056093;6.918538071519885;Sülz, Köln;;Köln
Weisshaus-Kino;Indie Movie Theater;50.91699403005416;6.928837904541595;Sülz, Köln;;Köln
Rossmann;Drugstore;50.917546514487384;6.924520065622858;Sülz, Köln;;Köln
LUX Restaurant;Burger Joint;50.91801719766981;6.929605610436622;Sülz, Köln;;Köln
Südkurve;Pub;50.91684435342506;6.928486147761585;Sülz, Köln;;Köln
BackWerk;Bakery;50.91682224;6.92539563;Sülz, Köln;;Köln
EDEKA Romano;Supermarket;50.91659000000001;6.9236699999999995;Sülz, Köln;;Köln
Samowar;Breakfast Spot;50.919977;6.920398;Sülz, Köln;;Köln
Tan Grill;Fast Food Restaurant;50.92186529456511;6.920582572647057;Sülz, Köln;;Köln
Burger Bud;Burger Joint;50.9214902479481;6.928915863946068;Sülz, Köln;;Köln
Cafe Osterspey;Café;50.91604468079856;6.927831453461849;Sülz, Köln;;Köln
Colonia Kebap Haus;Falafel Restaurant;50.915470363403934;6.927870776091534;Sülz, Köln;;Köln
Kochhaus Sülz;Food & Drink Shop;50.91694745412022;6.925421976277739;Sülz, Köln;;Köln
Gyros bei Spyros;Greek Restaurant;50.92330890221939;6.924631028012749;Sülz, Köln;;Köln
ALDI SÜD;Supermarket;50.91619999933221;6.9264194913326955;Sülz, Köln;;Köln
Parfümerie Douglas Köln Sülz;Perfume Shop;50.91708637862168;6.924517262022056;Sülz, Köln;;Köln
Gelateria Firenze;Ice Cream Shop;50.9167;6.925991000000001;Sülz, Köln;;Köln
Klein's Backstube;Bakery;50.9165153915577;6.926366826820138;Sülz, Köln;;Köln
Kamps;Bakery;50.922474187299116;6.9220733642578125;Sülz, Köln;;Köln
Die Malve;Mediterranean Restaurant;50.918855;6.930687;Sülz, Köln;;Köln
GUTS & GLORY Boxclub;Boxing Gym;50.921366208255044;6.918315763844656;Sülz, Köln;;Köln
Tibet;Asian Restaurant;53.580647036246994;9.7920057123857;Sülldorf, Hamburg;;Hamburg
Lidl;Supermarket;53.58061370000001;9.7977281;Sülldorf, Hamburg;;Hamburg
Biohof Timmermann;Organic Grocery;53.58351102600675;9.794400578971624;Sülldorf, Hamburg;;Hamburg
Konservatorium;College Arts Building;53.57968399999999;9.799358999999999;Sülldorf, Hamburg;;Hamburg
S Sülldorf;Light Rail Station;53.57969072013419;9.79937965165513;Sülldorf, Hamburg;;Hamburg
Pferdehof Glissmann;Farm;53.58423631896756;9.795550649633627;Sülldorf, Hamburg;;Hamburg
ALDI NORD;Supermarket;53.57992099601511;9.802462090500304;Sülldorf, Hamburg;;Hamburg
Café Maître;Café;51.32320689673927;12.373429593485904;Südvorstadt, Leipzig;;Leipzig
Hafenbar;Pub;51.32408403097916;12.373178920528266;Südvorstadt, Leipzig;;Leipzig
Noels Ballroom;Irish Pub;51.32069716734016;12.374437386579995;Südvorstadt, Leipzig;;Leipzig
Eisdiele Pfeifer;Ice Cream Shop;51.322068923448356;12.371842898455524;Südvorstadt, Leipzig;;Leipzig
Viet Cuisine;Vietnamese Restaurant;51.322578;12.373439999999999;Südvorstadt, Leipzig;;Leipzig
Horns Erben;Pub;51.323297812330075;12.372077387743413;Südvorstadt, Leipzig;;Leipzig
McCormacks Irish Pub & Lounge;Irish Pub;51.32369482072643;12.373788862074516;Südvorstadt, Leipzig;;Leipzig
Killiwilly;Irish Pub;51.32539914087019;12.373678285861496;Südvorstadt, Leipzig;;Leipzig
Staubsauger;Nightclub;51.321575594642255;12.373522858053255;Südvorstadt, Leipzig;;Leipzig
die naTo;Cultural Center;51.32512438372481;12.373547882138105;Südvorstadt, Leipzig;;Leipzig
NIL Döner & Pizza;Falafel Restaurant;51.32379400116457;12.373617088369567;Südvorstadt, Leipzig;;Leipzig
Whispers Records;Record Shop;51.32001921608781;12.373612642634054;Südvorstadt, Leipzig;;Leipzig
Burgermeister - Der Grill;Burger Joint;51.32435028720814;12.373523398934704;Südvorstadt, Leipzig;;Leipzig
Café Puschkin;Café;51.32202290124568;12.373208832057598;Südvorstadt, Leipzig;;Leipzig
Shams Bistro;Restaurant;51.32040938203912;12.378475;Südvorstadt, Leipzig;;Leipzig
Sommerkino auf der Feinkost;Movie Theater;51.326429843902595;12.373014;Südvorstadt, Leipzig;;Leipzig
Feinkostgelände;Historic Site;51.32633839747283;12.373008472114368;Südvorstadt, Leipzig;;Leipzig
Meet freude;Korean Restaurant;51.322542999999996;12.373919;Südvorstadt, Leipzig;;Leipzig
El-Amir;Falafel Restaurant;51.325106421809174;12.37359533745068;Südvorstadt, Leipzig;;Leipzig
Rababa Bar;Hookah Bar;51.32309955395571;12.373447833329694;Südvorstadt, Leipzig;;Leipzig
Südplatzspäti;Food & Drink Shop;51.32430350671238;12.372810294184273;Südvorstadt, Leipzig;;Leipzig
Absturz;Concert Hall;51.32638849637314;12.372776801562695;Südvorstadt, Leipzig;;Leipzig
Fela;Restaurant;51.31844389247792;12.373351708103248;Südvorstadt, Leipzig;;Leipzig
Shady;Mediterranean Restaurant;51.325471041080114;12.370373536494064;Südvorstadt, Leipzig;;Leipzig
Lulu Lottenstein;Café;51.32482090192238;12.37363347184052;Südvorstadt, Leipzig;;Leipzig
Kollektiv;Gastropub;51.32212140414797;12.373336625898814;Südvorstadt, Leipzig;;Leipzig
Biergarten unter der Löffelfamilie;Beer Garden;51.32672049921714;12.373579349709505;Südvorstadt, Leipzig;;Leipzig
Café Grundmann;Café;51.3251151717208;12.369623854278242;Südvorstadt, Leipzig;;Leipzig
LA COSITA;Caribbean Restaurant;51.32214414418298;12.373770475387573;Südvorstadt, Leipzig;;Leipzig
Olive Tree;Pizza Place;51.325803527791436;12.37369009658454;Südvorstadt, Leipzig;;Leipzig
ALDI NORD;Supermarket;51.32612501528059;12.371996082235315;Südvorstadt, Leipzig;;Leipzig
Südplatz;Plaza;51.324394051506644;12.373527202413735;Südvorstadt, Leipzig;;Leipzig
Orange;Café;51.32588072844218;12.373689841835818;Südvorstadt, Leipzig;;Leipzig
La Boum;Cocktail Bar;51.32681129873903;12.373872728737462;Südvorstadt, Leipzig;;Leipzig
Kickers In;Bar;51.32294597586518;12.373571073207653;Südvorstadt, Leipzig;;Leipzig
Deli Door;Hot Dog Joint;51.324889740972786;12.373633104287574;Südvorstadt, Leipzig;;Leipzig
de Prins;Pub;51.44287535076322;7.01585266163357;Südviertel, Essen;;Essen
Tofino;Burger Joint;51.44217912206121;7.01745730961837;Südviertel, Essen;;Essen
I AM LOVE;Ice Cream Shop;51.4426290538387;7.018465636705086;Südviertel, Essen;;Essen
Gold Bar;Café;51.442988981896804;7.016025558073603;Südviertel, Essen;;Essen
Café LIVRES;Café;51.44248613532841;7.018186083220103;Südviertel, Essen;;Essen
Nuova Venezia;Italian Restaurant;51.441722963426905;7.016656968138835;Südviertel, Essen;;Essen
Tio Pepe;Spanish Restaurant;51.44146256900535;7.015838884341759;Südviertel, Essen;;Essen
Karawane;Middle Eastern Restaurant;51.44124429329508;7.020399250679428;Südviertel, Essen;;Essen
Café Click;Café;51.443445928176146;7.015742045084443;Südviertel, Essen;;Essen
The Oak;Restaurant;51.441463;7.0195110000000005;Südviertel, Essen;;Essen
Arabesque;Middle Eastern Restaurant;51.442854652784845;7.01705221084386;Südviertel, Essen;;Essen
Snack 'n' Roll Garage;Burger Joint;51.440177;7.022305;Südviertel, Essen;;Essen
Viva la Vida;Spanish Restaurant;51.440439979042225;7.012514568272293;Südviertel, Essen;;Essen
EDEKA Essen-Rüttenscheid, Rellinghauser Str.;Supermarket;51.441569;7.017900999999999;Südviertel, Essen;;Essen
Dalmatien;Restaurant;51.442427;7.011409;Südviertel, Essen;;Essen
Südrock;Bar;51.44223761998787;7.018261947294303;Südviertel, Essen;;Essen
EDEKA;Supermarket;51.4462783;7.0166363;Südviertel, Essen;;Essen
H Moltkestraße;Tram Station;51.4428054974929;7.018692652088653;Südviertel, Essen;;Essen
Dong A;Asian Restaurant;51.442888420540456;7.019048643312974;Südviertel, Essen;;Essen
Prego;Pizza Place;51.442464887760885;7.018163933011872;Südviertel, Essen;;Essen
Packstation 103;Shipping Store;51.4416760009659;7.018614756516636;Südviertel, Essen;;Essen
H Kronprinzenstraße;Tram Station;51.44547247541954;7.017239156231973;Südviertel, Essen;;Essen
Bahnhof Süd;Restaurant;51.43994700104898;7.022701918661021;Südviertel, Essen;;Essen
virtualnights:media ltd.;Event Service;51.44560324167121;7.017894602352006;Südviertel, Essen;;Essen
H Aalto Theater;Tram Station;51.44637755314889;7.0136989262032685;Südviertel, Essen;;Essen
Eulenspiegel;Indie Movie Theater;51.44994883249944;7.033059848840586;Südostviertel, Essen;;Essen
dm-drogerie markt;Drugstore;51.4504369;7.0314679;Südostviertel, Essen;;Essen
Dost Kebap;Turkish Restaurant;51.45003;7.0331589999999995;Südostviertel, Essen;;Essen
Döbbe;Bakery;51.44995975392575;7.031794509683758;Südostviertel, Essen;;Essen
H Wasserturm;Tram Station;51.45224061481254;7.027838229251612;Südostviertel, Essen;;Essen
H Wörthstraße;Tram Station;51.450100063915606;7.0327246130361445;Südostviertel, Essen;;Essen
Pizzeria Salvatore;Pizza Place;51.44945347069304;7.034429863540336;Südostviertel, Essen;;Essen
Portus Padaria Artesanal;Bakery;-26.90385245646763;-49.09141679192018;Süd, Stuttgart;;Stuttgart
Cooper;Supermarket;-26.904533523554324;-49.09292909429692;Süd, Stuttgart;;Stuttgart
Star Beer;Liquor Store;-26.90325055075269;-49.09023800362903;Süd, Stuttgart;;Stuttgart
Stuttgart Artigos Finos;Gourmet Shop;-26.903686896583046;-49.0917041604386;Süd, Stuttgart;;Stuttgart
Boutique do Peixe;Fish & Chips Shop;-26.904166971349603;-49.09195755612051;Süd, Stuttgart;;Stuttgart
Trevi's Camisaria;Tailor Shop;-26.90483361617557;-49.08974208972314;Süd, Stuttgart;;Stuttgart
Hi Soluções;Electronics Store;-26.90492150386137;-49.09282035086112;Süd, Stuttgart;;Stuttgart
Empório do Pão;Bakery;-26.906086118317145;-49.09205346381546;Süd, Stuttgart;;Stuttgart
Sushi Da Vila;Sushi Restaurant;-26.90455453876872;-49.092925528675025;Süd, Stuttgart;;Stuttgart
Hi Soluções;Other Repair Shop;-26.90403044301333;-49.09155544033565;Süd, Stuttgart;;Stuttgart
Equilibrium Academia;Gymnastics Gym;-26.903924475684985;-49.088430715717536;Süd, Stuttgart;;Stuttgart
Restaurante Kamer;BBQ Joint;-26.90260504482306;-49.089228942759384;Süd, Stuttgart;;Stuttgart
Posto Almirante;Gas Station;-26.90158653313391;-49.08901548537853;Süd, Stuttgart;;Stuttgart
Sushi Haus;Sushi Restaurant;-26.902647724731988;-49.08777868741913;Süd, Stuttgart;;Stuttgart
Restaurante Saint Petit;Italian Restaurant;-26.904119281902066;-49.09371044689576;Süd, Stuttgart;;Stuttgart
Big Dog Brasil;Hot Dog Joint;-26.90067076332447;-49.08861452662764;Süd, Stuttgart;;Stuttgart
Mega Pizza Express;Pizza Place;-26.90218593937098;-49.08835339382703;Süd, Stuttgart;;Stuttgart
Formabella;Furniture / Home Store;-26.90418982396155;-49.09181939534663;Süd, Stuttgart;;Stuttgart
Hiper Festas;Souvenir Shop;-26.90517960337104;-49.09248553072868;Süd, Stuttgart;;Stuttgart
Clinica CorpusBlu;Spa;-26.90620937001828;-49.09185108225708;Süd, Stuttgart;;Stuttgart
Berlim Ambientes;Furniture / Home Store;-26.904553017166535;-49.08692970609875;Süd, Stuttgart;;Stuttgart
Crossfit Blumenau;Gym / Fitness Center;-26.90550273022089;-49.087143831513224;Süd, Stuttgart;;Stuttgart
Pizza Picco;BBQ Joint;51.48153647469901;7.59148842533845;Sölderholz, Dortmund;;Dortmund
Haus Sievert;Gastropub;51.48145873938714;7.591765648248682;Sölderholz, Dortmund;;Dortmund
AVIE Eichholz-Apotheke;Pharmacy;51.477629;7.597453999999999;Sölderholz, Dortmund;;Dortmund
La Macchia;Pizza Place;51.484586;7.593611999999999;Sölderholz, Dortmund;;Dortmund
Lidl;Supermarket;51.493371424985895;7.586848139762878;Sölde, Dortmund;;Dortmund
Pizzeria La Stella;Pizza Place;51.49708144205314;7.587760348980341;Sölde, Dortmund;;Dortmund
Bäckermeister Grobe;Bakery;51.49709401818201;7.587598769937537;Sölde, Dortmund;;Dortmund
Bahnhof Dortmund-Sölde;Train Station;51.49709270410047;7.587736278828351;Sölde, Dortmund;;Dortmund
Geldautomat Dortmunder Volksbank;ATM;51.49708931338973;7.587754459033871;Sölde, Dortmund;;Dortmund
Hohensyburg;Historic Site;51.420165000000004;7.486835000000001;Syburg, Dortmund;;Dortmund
Spielbank Hohensyburg;Casino;51.42075204843727;7.488724475536967;Syburg, Dortmund;;Dortmund
Sunshine;Hotel Bar;51.42448224264242;7.487724382750652;Syburg, Dortmund;;Dortmund
Alt Syburg;German Restaurant;51.42384113385112;7.487418203797373;Syburg, Dortmund;;Dortmund
H Syburg;Bus Stop;51.424518305494345;7.487662324505032;Syburg, Dortmund;;Dortmund
Landhaus Syburg;Hotel;51.424445431916546;7.488031937262872;Syburg, Dortmund;;Dortmund
Rossmann;Drugstore;51.31908800375625;12.423988760803175;Stötteritz, Leipzig;;Leipzig
Lidl;Supermarket;51.31957990000001;12.424119099999999;Stötteritz, Leipzig;;Leipzig
lebendigMACHER UG (haftungsbeschränkt);Business Service;51.31905643871256;12.419300973415373;Stötteritz, Leipzig;;Leipzig
H Rathaus Stötteritz;Tram Station;51.31926;12.420086999999999;Stötteritz, Leipzig;;Leipzig
